id,name,address,suburb,lat,lng,rating,totalRatings,phone,website,state,country
ChIJncgoxNe6MioR5Y7n-EF_-AE,Snap Fitness 24/7 Perth CBD,"81 St Georges Terrace, Perth WA 6000, Australia",Perth CBD,-31.955353999999996,115.8578034,4.7,295,+61 450 707 627,https://www.snapfitness.com/au/gyms/perth-cbd?utm_source=gmb&utm_medium=yext,WA,AU
ChIJSRL-YNa6MioRNBTKmQEoX6w,Anytime Fitness,"158-160 Murray St, Perth WA 6000, Australia",Perth CBD,-31.9532988,115.860637,4,293,+61 422 859 905,https://www.anytimefitness.com.au/gyms/au-1473/perth-wa-6000/,WA,AU
ChIJGdNKt9u6MioR5VOzxi-LW2s,Dohertys Gym,"154 Edward St, Perth WA 6000, Australia",Perth CBD,-31.946684599999998,115.8676778,4.8,232,+61 435 558 534,http://www.dohertysgym.com/,WA,AU
ChIJiSYlGda6MioRHlLqsMrESdA,Vault Fitness,"44 St Georges Terrace, Perth WA 6000, Australia",Perth CBD,-31.955038000000002,115.8594314,4.6,27,+61 8 9221 7517,https://www.motivateultra.au/,WA,AU
ChIJW2vBNia7MioRDe-QDmfR_VI,Victoria Avenue Fitness Centre,"2 Victoria Ave, Perth WA 6000, Australia",Perth CBD,-31.959264500000003,115.8648692,4.3,58,+61 409 682 485,https://victoriaavenuefitness.com.au/,WA,AU
ChIJSQexq9S6MioRJJBBTOJNeCE,Snap Fitness Perth City 24/7,"853 Hay St, Perth WA 6000, Australia",Perth CBD,-31.952757799999997,115.85379540000001,4.7,128,+61 490 071 509,https://www.snapfitness.com/au/gyms/perth-city/,WA,AU
ChIJu6Mdkcu6MioRCjIxgO03up0,Bobridge Gym,"217/225 Fitzgerald St, West Perth WA 6000, Australia",Perth CBD,-31.939524700000003,115.85617099999999,4.9,594,+61 415 765 616,http://bobridgegym.com.au/,WA,AU
ChIJLY_bBtW6MioRn3UQnsau7q8,Goodlife Health Clubs Brookfield Place,"125 St Georges Terrace, Perth WA 6000, Australia",Perth CBD,-31.954989299999998,115.8552353,3.4,155,+61 8 6141 1800,https://www.goodlife.com.au/clubs/brookfield-place/?utm_source=gbp&utm_medium=organic&utm_campaign=GL%20-%20AO%20-%20GBP%20-%20GOO%20-%20AU&utm_content=Goodlife%20Health%20Clubs%20Brookfield%20Place%20-%20Perth&utm_term=plcid_9133876112318125146,WA,AU
ChIJLbPyXiulMioRf0hdW8A6TZk,Fuller Fitness,"250 St Georges Terrace, Perth WA 6000, Australia",Perth CBD,-31.9512996,115.8509292,5,4,+61 8 9321 4819,http://www.fullerfitness.com.au/,WA,AU
ChIJ-7Ohq6S7MioR7ifqImrgdUc,TheTrack Langley,"30 Terrace Rd, East Perth WA 6004, Australia",Perth CBD,-31.961848999999997,115.87289499999999,4.9,121,+61 420 487 019,http://www.thetrackgym.com.au/langley,WA,AU
ChIJPaPOJNy6MioRxf5UJS30oY0,RAW Fit Co,"49 Gladstone St, Perth WA 6000, Australia",Perth CBD,-31.9469227,115.8718847,5,99,+61 468 683 932,https://rawfitco.com.au/,WA,AU
ChIJI1-1YaC7MioRq0WXdNm6Qxk,SPARQ Fitness,"146 Summers St, Perth WA 6000, Australia",Perth CBD,-31.945017099999998,115.8730769,5,56,+61 424 829 697,https://sparqfitness.com.au/,WA,AU
ChIJv06AAim7MioRzAfZF_aaUu4,Surge Fitness | Club One,"1 The Esplanade, Perth WA 6000, Australia",Perth CBD,-31.957303999999997,115.8583238,,,+61 8 9408 5659,https://www.surgefitness.com.au/,WA,AU
ChIJT17ltse7MioRjl3_UDuOkws,CXP Method,"884 Hay St, Perth WA 6000, Australia",Perth CBD,-31.952040000000004,115.85325519999999,4.5,33,+61 468 169 337,https://cxpmethod.com.au/,WA,AU
ChIJKZQNlx-7MioRc3TmSU5tpMY,Stadium Fitness East Perth,"opp BP, 30 Brown St, East Perth WA 6004, Australia",Perth CBD,-31.950704,115.87716100000002,4.4,68,+61 434 233 382,http://www.stadiumfitness.com.au/,WA,AU
ChIJZRkH5im7MioROt2BU9JgRZ8,Heartbeat High,"Level 3/5 Barrack St, Perth WA 6000, Australia",Perth CBD,-31.9562377,115.8592466,4.9,80,+61 467 554 669,https://www.heartbeathigh.com.au/perth-city?utm_source=google+my+business&utm_medium=organic&utm_campaign=google+my+business+%7C+perth+cbd,WA,AU
ChIJez949Na6MioR1c4P5AGkXpA,Forrest Chase,"200 Murray St, Perth WA 6000, Australia",Perth CBD,-31.9525685,115.8598621,4.1,3256,+61 8 9476 7666,https://forrestchase.com.au/,WA,AU
ChIJqZJ-Mdy6MioR83ZwqSlj2D0,Grandstand Crossfit,"92 Parry St, Perth WA 6000, Australia",Perth CBD,-31.9479987,115.86840989999999,4.8,91,+61 424 476 235,http://www.grandstandcrossfit.com.au/,WA,AU
ChIJfRsRPye7MioRrAnM4ETNRVE,Fitness Centre,"Fitness Centre, 165 State Route 65, Perth WA 6000, Australia",Perth CBD,-31.955013700000002,115.86867319999999,,,,,WA,AU
ChIJAUkk0FyjMioRW9jTn4GeEgU,Gold's Gym Fremantle,"256 Hampton Rd, South Fremantle WA 6162, Australia",Fremantle,-32.0746916,115.7613757,4.3,153,+61 414 106 162,https://goldsgym.com.au/fremantle/,WA,AU
ChIJT-N23cGjMioRSGyVt1lDETs,The Yard Gym Fremantle,"1 Westbury Cres, Bicton WA 6157, Australia",Fremantle,-32.0376602,115.77688810000001,4.9,181,+61 455 878 655,https://theyardgym.com/locations/fremantle,WA,AU
ChIJezrD4GKhMioRGZU7VIFG0WE,Snap Fitness 24/7 Fremantle,"22 Queen St, Fremantle WA 6160, Australia",Fremantle,-32.0531856,115.7485121,4.7,80,+61 456 222 884,https://www.snapfitness.com/au/gyms/fremantle/?utm_source=extnet&utm_medium=yext,WA,AU
ChIJKZGiTPqhMioRnjoSmHdFyXg,Spring Into Fitness,"Victoria Pavillion, Parry St, Fremantle WA 6160, Australia",Fremantle,-32.055903799999996,115.7501101,4.8,30,,https://springintofitness.com.au/,WA,AU
ChIJ2zRb7mOhMioRnguZkAevn6s,Fremantle Leisure Centre,"10 Shuffrey St, Fremantle WA 6160, Australia",Fremantle,-32.047957,115.75285799999997,4.3,353,+61 8 9432 9999,http://www.fremantle.wa.gov.au/flc,WA,AU
ChIJCf_zoSeiMioRZxQ8ezevT_A,Jetts Fremantle,"25/219 Hampton Rd, South Fremantle WA 6162, Australia",Fremantle,-32.0740388,115.7593085,4.6,109,+61 8 9336 2080,https://jetts.com.au/gym/jetts-fremantle/,WA,AU
ChIJK3laQwCjMioRhZrDtpCLcK8,B Active East Fremantle,"1 Carnaby Close, East Fremantle WA 6158, Australia",Fremantle,-32.0454898,115.76799359999998,4.8,23,+61 8 9362 6400,https://bactiveeastfremantle.com.au/,WA,AU
ChIJx9-YVPOhMioRxKzVXZmtu9I,5th Element Fitness,"75 Queen Victoria St, Fremantle WA 6160, Australia",Fremantle,-32.0462652,115.75254389999999,5,6,+61 1300 433 339,http://www.5thelementfitness.com.au/,WA,AU
ChIJkaI0dU-hMioROjEe3h-iTWc,Encounter Studios Fremantle,"217 High St, Fremantle WA 6160, Australia",Fremantle,-32.05285670000001,115.75279139999998,5,2,+61 437 792 295,https://encounterstudiosco.com.au/,WA,AU
ChIJ3Xdq0HOjMioR5EVUsqbvB8M,Fitstop South Fremantle,"2/252 Hampton Rd, South Fremantle WA 6162, Australia",Fremantle,-32.07363,115.7602239,4.9,128,+61 489 076 907,https://fitstop.com/au/gyms/wa/south-fremantle/,WA,AU
ChIJA5L91qahMioR4BuM7WpXp5c,Bsweat Fitness Studio & Gym North Fremantle,"2/107 Stirling Hwy, North Fremantle WA 6159, Australia",Fremantle,-32.02875,115.7528391,5,117,,https://www.bsweat.com.au/,WA,AU
ChIJS7SJwN2jMioRixmWxMRe2jQ,Boom Fitness - East Fremantle,"155 Canning Hwy, East Fremantle WA 6158, Australia",Fremantle,-32.0412026,115.764516,4.7,12,+61 94381888,http://boomfitness.com.au/,WA,AU
ChIJt2sSv_KjMioRvkWmiiy3GlU,Fit Bomb,"358C South St, O'Connor WA 6163, Australia",Fremantle,-32.0625128,115.78672549999999,5,65,+61 410 616 728,https://www.fitbomb.com.au/?utm_source=google&utm_medium=organic&utm_campaign=google_business_profile,WA,AU
ChIJq2iX35ejMioRFIPYaRRXeUI,Plus Fitness 24/7 Melville,"Enter via Upstairs Carpark, 380 Canning Hwy, Bicton WA 6157, Australia",Fremantle,-32.0331738,115.79163309999998,4.5,55,+61 8 6142 9022,https://www.plusfitness.com.au/gyms/melville/,WA,AU
ChIJ4cGeeImjMioRjfMaEC9HmWI,Uncommon Haus,"29 Wood St, Fremantle WA 6160, Australia",Fremantle,-32.0520198,115.76376020000001,5,4,+61 435 170 227,http://uncommonhaus.com/,WA,AU
ChIJ69QGRVShMioRMkjn_NJ_9HE,The Mill Gym,"1 Coventry Parade, North Fremantle WA 6159, Australia",Fremantle,-32.0244968,115.7536893,4.5,13,+61 2 0083 8746,http://themillgym.com/,WA,AU
ChIJQczEHkiiMioRcMaMEwF6Ok0,Fremantle PCYC,"2/34 Paget St, Hilton WA 6163, Australia",Fremantle,-32.068259499999996,115.7816921,4,10,+61 8 9314 3157,https://www.wapcyc.com.au/location/fremantle,WA,AU
ChIJHYl7cwqjMioRjUwGbIEdJMQ,VP Fit,"3/5 Emplacement Cres, Hamilton Hill WA 6163, Australia",Fremantle,-32.082934099999996,115.76242269999999,5,93,+61 485 001 890,http://www.vpfit.com.au/,WA,AU
ChIJQ_55voujMioRmg0qvL2faCY,Revo Fitness - O'Connor,"5 Stockdale Rd, O'Connor WA 6163, Australia",Fremantle,-32.056889399999996,115.7925038,4.4,168,+61 1300 738 638,https://revofitness.com.au/gyms/oconnor/?utm_term=plcid_14577424450800467706&utm_source=google&utm_medium=organic&utm_campaign=Google+My+Business&utm_content=Revo+Fitness+-+O%27Connor,WA,AU
ChIJefLpn8ahMioRiMnnD-EVYfI,Intense Health North Fremantle,"4/210 Queen Victoria St, North Fremantle WA 6159, Australia",Fremantle,-32.03630690000001,115.7538635,5,3,+61 401 261 702,https://www.intensehealth.com/,WA,AU
ChIJCyqhJ05TzSsRR4v10-zcgA4,Anytime Fitness Joondalup,"Unit 18/3 Sundew Rise, Joondalup WA 6027, Australia",Joondalup,-31.759223499999997,115.77334739999999,4.7,61,+61 458 207 935,https://www.anytimefitness.com.au/gyms/au-1757/joondalup-wa-6027/,WA,AU
ChIJK6XwfTlTzSsRsCqp6JiAnXQ,World Gym Joondalup,"6 Clarke Cres, Joondalup WA 6027, Australia",Joondalup,-31.748112199999994,115.76574790000001,4.5,426,+61 8 6500 0840,https://www.worldgym.com.au/gyms/joondalup?utm_source=organic&utm_medium=gmb&utm_id=google,WA,AU
ChIJSd5pHmNTzSsRsM2PAbUrQrY,Arena Joondalup Gym,"25 Kennedya Dr, Joondalup WA 6027, Australia",Joondalup,-31.734447099999997,115.76059989999999,4.5,65,+61 8 9300 7171,http://www.arenajoondalup.com.au/gym,WA,AU
ChIJ2XYFnx6tMioRZBqYjz7D_6g,Revo Fitness - Joondalup,"Joondalup Gate 70/75 Joondalup Drive, Edgewater, Joondalup WA 6027, Australia",Joondalup,-31.770082499999997,115.77843770000001,4.2,180,+61 1300 738 638,https://revofitness.com.au/gyms/joondalup/?utm_term=plcid_13497733512665128548&utm_source=google&utm_medium=organic&utm_campaign=Google+My+Business&utm_content=Revo+Fitness+-+Joondalup,WA,AU
ChIJxS7hwENTzSsRtE4T86SQdLI,Goodlife Health Clubs Joondalup,"11 Injune Way, Joondalup WA 6027, Australia",Joondalup,-31.7568514,115.7711389,3.7,287,+61 8 9301 2222,https://www.goodlife.com.au/clubs/joondalup/?utm_source=gbp&utm_medium=organic&utm_campaign=GL%20-%20AO%20-%20GBP%20-%20GOO%20-%20AU&utm_content=Goodlife%20Health%20Clubs%20Joondalup&utm_term=plcid_3334603423914566116,WA,AU
ChIJFWd5EuZTzSsRsSaIC7w2DBY,Fitstop Joondalup,"Unit 4/133 Winton Rd, Joondalup WA 6027, Australia",Joondalup,-31.739752199999998,115.75986639999999,4.9,36,+61 427 545 839,https://fitstop.com/au/web/locations/au/Joondalup,WA,AU
ChIJ_xtOKsFTzSsRpExAs6Kh0Ac,PLC Joondalup,"Unit 3/7 Packard St, Joondalup WA 6027, Australia",Joondalup,-31.749303799999996,115.76311299999999,5,268,+61 483 951 175,https://premiumlifestyleclubs.com/welcome,WA,AU
ChIJ5bghR4etMioRUjNt7srL-Vk,Sista Fitness 24/7 Joondalup,"21 Joondalup Dr, Edgewater WA 6027, Australia",Joondalup,-31.774131200000003,115.7826667,4.9,16,+61 8 6311 5544,https://sistafitness.com.au/,WA,AU
ChIJS-h-oS9TzSsRr5lY7LYaV7A,Momentum,"3/86 Winton Rd, Joondalup WA 6027, Australia",Joondalup,-31.74447,115.76030999999998,5,44,+61 468 036 436,http://clubmomentum.com.au/,WA,AU
ChIJmWhev2JTzSsRXEkdHedC3rE,Arena Joondalup,"Kennedya Dr, Joondalup WA 6027, Australia",Joondalup,-31.734645800000003,115.76070399999999,4.3,1369,+61 8 9300 3355,https://www.arenajoondalup.com.au/?utm_source=google&utm_medium=organic&utm_campaign=gmb,WA,AU
ChIJO-kFwEVTzSsRoAT2hVyEdGw,ECU Sport and Fitness Centre,"Prilep Dr, Joondalup WA 6027, Australia",Joondalup,-31.7543087,115.77342250000001,4.4,156,+61 8 6304 5000,https://www.ecu.edu.au/centres/digital-and-campus-services/our-services/sport-and-fitness,WA,AU
ChIJ24JkPShTzSsRPCfOagAyPdc,Champions Gym Joondalup Muay Thai Boxing,"5/8 Dwyer Turn, Joondalup WA 6027, Australia",Joondalup,-31.740879699999997,115.7640519,4.7,103,+61 481 169 801,http://www.championsgym.com.au/,WA,AU
ChIJD50JfdRTzSsRbkd0jR8TtW4,The Yard Gym Joondalup,"44 Winton Rd, Joondalup WA 6027, Australia",Joondalup,-31.7463993,115.7608017,5,2,,https://www.theyardgym.com/,WA,AU
ChIJY1G0IbJTzSsR_fhTB5vYIN4,Optimal Health Fitness & Recovery,"3/43 Winton Rd, Joondalup WA 6027, Australia",Joondalup,-31.7489346,115.76130149999999,5,3,+61 8 6383 6398,,WA,AU
ChIJ5Rfn2pNUzSsRlLA-YlshDBw,Lacey's Boxing Gym,"1 Grand Blvd, Joondalup WA 6027, Australia",Joondalup,-31.733975299999997,115.76648179999998,4.6,86,+61 421 376 854,https://www.laceys.net.au/,WA,AU
ChIJOai1EFirMioRHMd5LJJbCYY,Anytime Fitness Beldon,"2/1 Gunter Grove, Beldon WA 6027, Australia",Joondalup,-31.777038500000003,115.75643330000001,4.7,196,+61 434 234 479,https://www.anytimefitness.com.au/gyms/au-1147/beldon-wa-6027/,WA,AU
ChIJ9SN8tjetMioR-5i9ZLqEeYQ,iamFIT Training,"56/57 Joondalup Dr, Edgewater WA 6027, Australia",Joondalup,-31.770404199999998,115.7797976,4.9,58,+61 452 226 918,http://www.iamfit.training/,WA,AU
ChIJMQssHFxTzSsRN75UMOHMjCY,Trojan Fitness Equipment,"8/200 Winton Rd, Joondalup WA 6027, Australia",Joondalup,-31.7472066,115.7636137,4.8,79,+61 1300 876 526,https://www.trojanfitness.com.au/,WA,AU
ChIJo4rYkrasMioR9PVMNg75W5s,Orbit Fitness Equipment - Joondalup,"78/93 Joondalup Dr, Edgewater WA 6027, Australia",Joondalup,-31.768890000000003,115.77791699999999,4.6,131,+61 8 6241 3004,https://www.orbitfitness.com.au/?utm_source=gmb&utm_medium=organic&utm_campaign=local&utm_term=joondalup,WA,AU
ChIJ15oLB1pTzSsRloI166WEtIU,STRONG Pilates Joondalup,"Unit 5/116 Winton Rd, Joondalup WA 6027, Australia",Joondalup,-31.741596599999998,115.76014070000001,5,50,+61 483 941 820,http://joondalup.strongpilates.com.au/,WA,AU
ChIJgat3cgC5MioRXJ2__o6IRKg,World Gym Midland,"218 Great Eastern Hwy, Midland WA 6056, Australia",Midland,-31.891404699999995,116.01469580000001,4.5,302,+61 8 6149 8775,https://www.worldgym.com.au/gyms/midland?utm_source=organic&utm_medium=gmb&utm_id=google,WA,AU
ChIJLRtRjOa5MioRSJ8pQ8xGU6Y,Revo Fitness Midland,"4 Clayton St, Midland WA 6056, Australia",Midland,-31.895991000000002,116.00866529999999,4.3,146,,https://revofitness.com.au/gyms/midland/?utm_term=plcid_3255164930036021765&utm_source=google&utm_medium=organic&utm_campaign=Google+My+Business&utm_content=Revo+Fitness+Midland,WA,AU
ChIJh5Jf5jy4MioRogL-kOSkshI,Snap Fitness 24/7 Midland,"228 Great Eastern Hwy, Midland WA 6056, Australia",Midland,-31.891437300000003,116.014236,4.7,182,+61 413 502 638,https://www.snapfitness.com/au/gyms/midland?utm_source=gmb&utm_medium=yext,WA,AU
ChIJRXXb_yW4MioRVM9FCCRAstg,Sista Fitness 24/7 Midland,"246 Great Eastern Hwy, Midland WA 6056, Australia",Midland,-31.891029999999997,116.01137000000001,4.1,90,+61 8 6311 5544,http://sistafitness.com.au/,WA,AU
ChIJD9zR7VO5MioR2qhO7B4l2Qw,Ryderwear Gym & Retail Midvale,"238 Morrison Rd, Midvale WA 6056, Australia",Midland,-31.886370399999997,116.03269730000001,4.5,189,+61 8 6155 7793,https://www.ryderweargym.com/pages/locations,WA,AU
ChIJLVeXdxK4MioR0cBwIj-mlx8,Strength and Motion Academy Midland 24/7 Gym,"4 Elliott St, Midvale WA 6056, Australia",Midland,-31.8940898,116.02943270000002,5,312,+61 419 429 678,http://www.smacademy.com.au/,WA,AU
ChIJCQtBYbu5MioRYI5jKOEUkdY,The Village Athletica,"84 Railway Parade, Midland WA 6056, Australia",Midland,-31.8919428,116.00354360000001,5,4,+61 449 523 937,https://thevillageathletica.com.au/,WA,AU
ChIJOT3-gw24MioRGwGYGKdTZzA,Anytime Fitness Midvale,"367 Great Eastern Hwy, Midvale WA 6056, Australia",Midland,-31.894106700000002,116.02986449999999,4.6,97,+61 472 679 613,https://www.anytimefitness.com/en-au/locations/midvale-western-australia-au-1301,WA,AU
ChIJDYO4b6m5MioRpG8PYC8WGAM,Revo Fitness - Woodbridge,"380 Great Eastern Hwy, Woodbridge WA 6056, Australia",Midland,-31.890351900000002,115.9953456,4.3,23,+61 1300 738 638,https://revofitness.com.au/gyms/woodbridge/,WA,AU
ChIJlT_IpxK5MioRXjRS5acA2W0,Swan Active Midland,"27 Gray Dr, Midvale WA 6056, Australia",Midland,-31.8834608,116.0247096,3.9,104,+61 8 9207 8888,https://www.swanactive.com.au/locations,WA,AU
ChIJGZ77H5nFMioRh0c_7AD9E0Y,Empowered Centre,"2/245 Great Eastern Hwy, Midland WA 6056, Australia",Midland,-31.891769999999998,116.01085940000002,4.8,55,+61 488 058 401,http://empoweredcentre.com.au/,WA,AU
ChIJJ4AD__G5MioRSJztbeNAWFA,SpeedFit Midland,"Shop T- 155/274 Great Eastern Hwy, Midland WA 6056, Australia",Midland,-31.890000999999998,116.00894980000001,5,101,+61 485 034 555,https://joinspeedfit.com/location/midland-wa/,WA,AU
ChIJ9SM5ARK4MioRvA7AebjPmuc,Hillside CrossFit,"2 Elgee Rd, Bellevue WA 6056, Australia",Midland,-31.895956799999997,116.0247661,4.9,90,+61 431 614 865,http://www.hillsidecrossfit.com.au/,WA,AU
ChIJvR5vaSy4MioR2OL8pjBa7JE,Midland PCYC,"11 Byers Rd, Midland WA 6056, Australia",Midland,-31.8894274,115.9983177,3.8,6,+61 8 9274 1918,https://www.wapcyc.com.au/location/midland,WA,AU
ChIJEz4BTSy4MioR2QrLODvl448,Wellness Unleashed,"Unit 13/401 Great Eastern Hwy, Midland WA 6056, Australia",Midland,-31.890790600000003,115.99853890000001,4.9,41,+61 8 6118 8811,http://wellnessunleashed.com.au/,WA,AU
ChIJsU7uw0-5MioR4J-Wun8lIug,Pronto Pilates Midland,"58 The Crescent, Midland WA 6056, Australia",Midland,-31.888505700000003,116.0102171,,,+61 8 6383 5437,https://www.prontopilates.com.au/wa/midland/?utm_source=GBP&utm_medium=organic,WA,AU
ChIJR6kARnC5MioRh2PbJc-nJ8Q,The Studio Midland,"3/401 Great Eastern Hwy, Midland WA 6056, Australia",Midland,-31.890780999999997,115.99714290000001,,,+61 8 9274 1482,https://studiomidland.com.au/,WA,AU
ChIJ7T4t1TC5MioRhLO8kT2r6H4,The Cardio Room,"2 Elgee Rd, Bellevue WA 6056, Australia",Midland,-31.8958642,116.0247624,5,7,+61 431 937 179,,WA,AU
ChIJt11Lpx25MioRQrfwICsHUII,Anytime Fitness High Wycombe,"Shop 14/120 Wittenoom Rd, High Wycombe WA 6057, Australia",Midland,-31.939916900000004,115.9932011,4.7,75,+61 8 9454 6622,https://www.anytimefitness.com.au/gyms/au-1212/high-wycombe-wa-6057/?utm_source=google&utm_medium=organic&utm_campaign=gmb,WA,AU
ChIJayo-nTC4MioRfB5DpM9a-rM,HBF Physio by Life Ready Midland,"6 Centennial Pl, Midland WA 6056, Australia",Midland,-31.894430099999997,116.00577539999999,4.9,655,+61 8 9250 7772,https://www.hbfphysio.com.au/clinic/midland/,WA,AU
ChIJcb4SgwGDMioRqe7e4fMJV3g,Revo Fitness - Rockingham,"Rockingham Shopping Centre, Shop G109B/1 Council Ave, Rockingham WA 6168, Australia",Rockingham,-32.2896804,115.74799929999999,4.2,76,+61 1300 738 638,https://revofitness.com.au/gyms/rockingham/?utm_term=plcid_16491535693220663114&utm_source=google&utm_medium=organic&utm_campaign=Google+My+Business&utm_content=Revo+Fitness+-+Rockingham,WA,AU
ChIJeTIkQjqDMioR6IWHJ1Kz4aQ,Ryderwear Gym & Retail Rockingham,"37/39 Council Ave, Rockingham WA 6168, Australia",Rockingham,-32.2873747,115.752027,4.9,70,+61 8 9500 8010,https://www.ryderweargym.com/,WA,AU
ChIJE939DgudMioRzswRKX9VdyU,Roar MMA 24/7 Gym - Rockingham,"14/16 Commodore Dr, Rockingham WA 6168, Australia",Rockingham,-32.2782592,115.73828119999999,4.6,30,+61 483 952 527,https://roarmma.com.au/lp/rockingham-24-7-gym/?utm_source=google&utm_medium=gmb&utm_campaign=gym,WA,AU
ChIJAYdLGlqDMioROUr35e55Z5s,Balanced Health & Fitness,"2/10 Goddard St, Rockingham WA 6168, Australia",Rockingham,-32.2870521,115.751152,4.4,114,+61 8 9592 2620,https://www.bhf.net.au/,WA,AU
ChIJf4UlUbKcMioRME7BRbXCmyY,Gold's Gym Rockingham,"44 Patterson Rd, Rockingham WA 6168, Australia",Rockingham,-32.278698999999996,115.7344874,4.3,167,+61 437 334 006,https://goldsgym.com.au/rockingham/,WA,AU
ChIJ-ctstq6cMioRcx07DsKmHEo,PUMPT 24/7 Rockingham,"10/20 Merchant Dr, Rockingham WA 6168, Australia",Rockingham,-32.2689064,115.75167850000001,4.9,78,+61 406 191 977,https://www.pumpt247.com/,WA,AU
ChIJ26sIlq6cMioRsCyboLsbbyY,Anytime Fitness Rockingham,"Tenancy 6/2-6 Council Ave, Rockingham WA 6168, Australia",Rockingham,-32.2917938,115.7423858,4.4,74,+61 475 443 110,https://www.anytimefitness.com.au/gyms/au-1347/,WA,AU
ChIJ33OSYYWDMioRl1BFrcbS_Sw,Bemore Fitness Rockingham,"1/4 Cessnock Way, Rockingham WA 6168, Australia",Rockingham,-32.278940999999996,115.7370402,5,194,+61 8 9527 6297,https://bemorefitness.com.au/,WA,AU
ChIJp_ddL0WDMioR_oe7qlMq60A,Jetts Fitness Rockingham,"Outside Rockingham Shopping Centre 1 Council Avenue, 1 Syren St, Rockingham WA 6168, Australia",Rockingham,-32.28817120000001,115.7467118,4.7,86,+61 8 9527 2124,https://www.facebook.com/jettsRockingham/,WA,AU
ChIJJ_A0iFmDMioRRr7jDhVbR1M,Snap Fitness 24/7 Rockingham,"35 Council Ave, Rockingham WA 6168, Australia",Rockingham,-32.2880147,115.75170799999998,4.7,177,+61 412 113 086,https://www.snapfitness.com/au/gyms/rockingham?utm_source=gmb&utm_medium=yext,WA,AU
ChIJRTxCOLGDMioRTZYvLt_vuCY,RARE Fitness Rockingham,"4 Martin Rd, Rockingham WA 6168, Australia",Rockingham,-32.2870334,115.74072509999999,4.4,14,+61 489 987 196,https://www.rare.fitness/rockingham/,WA,AU
ChIJ8zdtULGEMioRt7YnMC6HG5k,Rockingham Fitness Hire and Sales,"3/117 Dixon Rd, Rockingham WA 6168, Australia",Rockingham,-32.2766356,115.77417289999998,4.8,23,+61 8 9527 5984,http://fitnessequipmentperth.com.au/,WA,AU
ChIJD6jxAveDMioRRb2gEamqtZE,STRONG Pilates Rockingham,"7 Robinson Rd, Rockingham WA 6168, Australia",Rockingham,-32.2870568,115.7414411,4.8,72,+61 483 906 864,https://strongpilates.com.au/location/rockingham/,WA,AU
ChIJA4fVtbScMioRh5u5-JX859c,Hammer Strength,"Commodore Dr, Rockingham WA 6168, Australia",Rockingham,-32.2781173,115.73848059999999,,,+61 8 9527 6165,,WA,AU
ChIJkRgRMFGdMioRbmq-Rvf6uFw,Just Ladies QuickFit,"Unit 1/20 Pedlar Cct, Rockingham WA 6168, Australia",Rockingham,-32.267686499999996,115.75126739999999,4.9,15,+61 482 076 061,http://www.jlquickfit.com.au/,WA,AU
ChIJ47m0HXuDMioRfuDGNkGTZ8E,inLIFE Wellness Rockingham,"15/10 Livingstone Rd, Rockingham WA 6168, Australia",Rockingham,-32.28674,115.74051000000001,4.8,28,+61 473 321 322,https://www.inlifewellness.com.au/rockingham,WA,AU
ChIJ7X45msGdMioRLjfhdIaoI_I,Palm Beach Wellness - Rockingham,"43 Rockingham Beach Rd, Rockingham WA 6168, Australia",Rockingham,-32.2743179,115.73203839999998,5,42,+61 420 246 260,https://www.palmbeachwellness.com.au/?utm_source=GBPRockingham&utm_medium=organic,WA,AU
ChIJ16u62iydMioRnbpv2IR4t9Q,Total Physique Performance,"Unit 2/20 Pedlar Cct, Rockingham WA 6168, Australia",Rockingham,-32.2677939,115.75127439999999,5,14,+61 403 287 338,https://www.totalphysiqueperformance.com/,WA,AU
ChIJqVE5bA-dMioRU3ZqVTxVL54,Injustice Crossfit,"unit 4/20 Merchant Dr, Rockingham WA 6168, Australia",Rockingham,-32.2690953,115.75109339999999,5,35,+61 459 133 664,https://injusticecrossfit.com/,WA,AU
ChIJX_4L_bmdMioRCxNTgZ9ovps,Infrared Wellness Centre Perth,"34/43 Rockingham Beach Rd, Rockingham WA 6168, Australia",Rockingham,-32.27437,115.73224320000001,5,2,+61 8 9592 5459,https://www.soulsoothingtherapy.com.au/,WA,AU
ChIJ9ZsOEzZ_MioRREPiWwYo-0U,Revo Fitness - Mandurah,"105 Reserve Dr, Mandurah WA 6210, Australia",Mandurah,-32.5121404,115.7375802,4.6,67,,https://revofitness.com.au/gyms/mandurah/,WA,AU
ChIJWXCEsOF5MioRpFtYTR_g_0o,World Gym Mandurah,"5-6/2 Rutland Dr, Halls Head WA 6210, Australia",Mandurah,-32.5464732,115.7049659,4.7,394,+61 8 9565 9966,https://www.worldgym.com.au/gyms/mandurah?utm_source=organic&utm_medium=gmb&utm_id=google,WA,AU
ChIJiw69dUt5MioRN5nBzbrNWBE,Bodyapeel Mandurah,"Unit 2/3, 10 Dower St, Mandurah WA 6210, Australia",Mandurah,-32.534698399999996,115.73856350000001,4.6,57,+61 8 9590 8368,http://www.bodyapeelmandurah.com.au/,WA,AU
ChIJlReeUoV_MioR3ILCKwUltVo,Ryderwear Gym & Retail Mandurah,"117/121 Mandurah Terrace, Mandurah WA 6210, Australia",Mandurah,-32.5245866,115.72543069999999,4.2,14,+61 8 9569 8838,https://www.ryderweargym.com/,WA,AU
ChIJeXdmL81-MioRIiZgd0o_ukU,Snap Fitness 24/7 Mandurah,"64 Pinjarra Rd, Mandurah WA 6210, Australia",Mandurah,-32.534490999999996,115.72436520000001,4.9,224,+61 432 694 117,https://www.snapfitness.com/au/gyms/mandurah?utm_source=gmb&utm_medium=yext,WA,AU
ChIJIw0ecJZ-MioR6dWGDChTkdo,Club Lime Mandurah,"327 Mandurah Terrace, Mandurah WA 6210, Australia",Mandurah,-32.5082743,115.74047549999999,4.2,136,+61 8 9545 2121,https://www.clublime.com.au/ourclubs/?id=c00d8603-2182-4cf9-aeef2ac1587de6c3&utm_source=gmb&utm_medium=organic&utm_campaign=gmb,WA,AU
ChIJRUFxovl9MioRoymlkQE3-cM,Feel Good Fitness WA,"56 Reserve Dr, Mandurah WA 6210, Australia",Mandurah,-32.513024400000006,115.74158260000002,4.9,157,+61 8 9584 4969,http://www.feelgoodfitnesswa.com.au/,WA,AU
ChIJdda9F2t8MioRk4mwjRx0CMw,M Theory Fitness,"20 Hampton Street, Greenfields 2 Beardsley Street, Port Kennedy, 20 Hampton St, Greenfields WA 6210, Australia",Mandurah,-32.512557199999996,115.74778859999999,4.9,54,+61 421 501 258,http://www.mtheoryfitness.com/,WA,AU
ChIJKwtkQV55MioR_YlCXZAsUso,SpeedFit Mandurah,"8/3 Dower St, Mandurah WA 6210, Australia",Mandurah,-32.5359531,115.73916439999999,5,117,+61 8 9289 6584,https://speed-fit.com.au/free-session-mandurah,WA,AU
ChIJVROh_s1_MioRG2u6qIY6vEQ,Anytime Fitness Meadow Springs,"25 Meadow Springs Dr, Meadow Springs WA 6210, Australia",Mandurah,-32.4936521,115.74868790000001,4.9,91,+61 484 510 171,https://www.anytimefitness.com/en-au/locations/meadow-springs-western-australia-au-1698,WA,AU
ChIJVVVV2Et5MioRpoU-EW89aoY,Mandurah Aquatic And Recreation Centre,"3/303 Pinjarra Rd, Mandurah WA 6210, Australia",Mandurah,-32.5369825,115.73695989999999,4.1,262,+61 8 9550 3600,https://www.mandurah.wa.gov.au/community/places/aquatic-and-recreation-centres,WA,AU
ChIJ6QhJ-MB4MioRGYVU-2FhcFA,Plus Fitness 24/7 Halls Head,"36 Wattleglen Ave, Erskine WA 6210, Australia",Mandurah,-32.561187,115.68883000000001,4.6,63,+61 8 9535 5777,https://www.plusfitness.com.au/gyms/halls-head/,WA,AU
ChIJCfEsSLx-MioR5rnXS3Hg4mw,The Cave Strength & Rehabilitation,"2/10 Kulin Way, Mandurah WA 6210, Australia",Mandurah,-32.51329,115.74100750000001,5,36,+61 408 245 529,http://www.cavestrength.com.au/,WA,AU
ChIJpUwSA2h_MioRGn21cYH7PIU,Core9 Fitness,"4/11 Rouse Rd, Greenfields WA 6210, Australia",Mandurah,-32.5150234,115.749394,5,85,+61 478 074 521,http://www.core9fitness.com.au/,WA,AU
ChIJQdaB9Up5MioRpDaSh15LYPQ,Orbit Fitness Equipment - Mandurah,"3B/10 Rutland Dr, Halls Head WA 6210, Australia",Mandurah,-32.5465438,115.70442369999999,4.9,177,+61 8 6241 3090,https://www.orbitfitness.com.au/store-location/mandurah,WA,AU
ChIJCW0t3_qHLSoRWg7v2mlaHxA,Think Fitness 24/7 Dawesville,"Shop 2/71 Dandaragan Dr, Dawesville WA 6211, Australia",Mandurah,-32.630566699999996,115.63015929999999,4.6,30,+61 8 6270 2407,https://thinkfitness247.com.au/,WA,AU
ChIJsRCCoH2HLSoRl-4VJx77Jq0,Anytime Fitness Falcon,"Unit 2 3/633 Old Coast Rd, Falcon WA 6210, Australia",Mandurah,-32.583245,115.66121600000001,4.6,140,+61 451 159 443,https://www.anytimefitness.com.au/gyms/au-1384/falcon-wa-6210/,WA,AU
ChIJna0vO8x_MioRXyRbQQ5Grvg,Rebound Arena Mandurah,"3/65 Reserve Dr, Mandurah WA 6210, Australia",Mandurah,-32.5127296,115.74246209999998,4.4,635,+61 8 9584 4980,https://reboundarena.com.au/mandurah/,WA,AU
ChIJ3QXgVWB_MioRvdyk0kCOeIE,The Body Consultants Mandurah,"4/9 Kulin Way, Mandurah WA 6120, Australia",Mandurah,-32.5130693,115.7399126,5,20,+61 488 849 005,http://www.tbcmandurah.com.au/,WA,AU
ChIJu3t90ZV4MioRaN76dt2f7pA,South Mandurah Crossfit,"17 Galbraith Loop, Falcon WA 6210, Australia",Mandurah,-32.5673366,115.68106069999999,5,9,+61 407 792 494,https://www.facebook.com/southmandurahcf/,WA,AU
ChIJZWDIJmN5MioR6lDK5yZ2aSE,Flex Fitness Equipment Mandurah,"317 Pinjarra Rd, Mandurah WA 6210, Australia",Mandurah,-32.53673,115.73917999999999,4.9,40,+61 8 6300 3600,http://www.flexequipment.com.au/,WA,AU
ChIJM2WUksV4MioR6qMIJ5SzzGA,Halls Head Recreation Centre,"42 Honeysuckle Ramble, Halls Head WA 6210, Australia",Mandurah,-32.5536623,115.6948285,4.1,57,+61 8 9550 3600,http://www.mandurah.wa.gov.au/Facilities/Recreation-Centres,WA,AU
ChIJn3pO_dJ-MioRZEigw6S0sk0,Freedom Studio Mandurah,"Shop 6A/14-20 Mandurah Terrace, Mandurah WA 6210, Australia",Mandurah,-32.533638599999996,115.719381,4.8,29,+61 424 749 163,http://www.freedomstudio.today/,WA,AU
ChIJ02KmGm5_MioRHvpLu6iPWi0,The Collective 247 Health and Fitness club,"15-19 Pinjarra Rd, Mandurah WA 6210, Australia",Mandurah,-32.5349559,115.72050639999999,5,2,+61 477 156 976,,WA,AU
ChIJy50hB4OUMioRNy4veGPLB8o,Armadale Fitness and Aquatic Centre,"60 Champion Dr, Seville Grove WA 6112, Australia",Armadale,-32.1332459,116.0029443,4.5,1159,+61 8 9394 5850,https://active.armadale.wa.gov.au/,WA,AU
ChIJ6Wl4qWuTMioR017IzPAs9L4,Snap Fitness Armadale 24/7,"3/92 Third Rd, Armadale WA 6112, Australia",Armadale,-32.151866399999996,116.0142142,4.5,182,+61 402 218 395,https://www.snapfitness.com/au/gyms/armadale/,WA,AU
ChIJt1iz_WqTMioRNwuGTq702cc,Anytime Fitness,"176 Jull St, Armadale WA 6112, Australia",Armadale,-32.1519913,116.0158283,4.3,90,+61 494 568 622,https://www.anytimefitness.com/en-au/locations/armadale-western-australia-au-1395,WA,AU
ChIJpedIDiSvMioRNrWHBLJNw0Y,Stirling Leisure - Scarborough,"Building 2/173 Gildercliffe St, Scarborough WA 6019, Australia",Stirling,-31.8955621,115.7745511,4.5,139,+61 8 9205 7490,https://www.stirling.wa.gov.au/stirling-leisure/our-locations/stirling-leisure-scarborough,WA,AU
ChIJPW5-A_auMioR6RFWjPHhzpI,Anytime Fitness,"Unit 7/39 Erindale Rd, Stirling WA 6021, Australia",Stirling,-31.867822300000004,115.80387230000001,4.5,98,+61 478 556 276,https://www.anytimefitness.com.au/gyms/au-1398/stirling-wa-6021/,WA,AU
ChIJmU_nVTSuMioR2599aRJkWpI,Jetts Stirling,"Shop 42/478 Wanneroo Rd, Westminster WA 6061, Australia",Stirling,-31.863284699999998,115.82896810000001,4.7,94,+61 8 9349 0230,https://jetts.com.au/gym/jetts-stirling/,WA,AU
ChIJVZpgpz2uMioRq1h1aDRV35A,Stirling Leisure - Balga,"109 Princess Rd, Balga WA 6061, Australia",Stirling,-31.854151400000003,115.8387073,4,481,+61 8 9205 7340,https://www.stirling.wa.gov.au/stirling-leisure/our-locations/stirling-leisure-balga,WA,AU
ChIJx65Z89KxMioRgBryGLbwBA8,Stirling Leisure - Mirrabooka,"38 Ashbury Cres, Mirrabooka WA 6061, Australia",Stirling,-31.866861999999998,115.86123359999999,4.3,678,+61 8 9205 7320,https://www.stirling.wa.gov.au/stirling-leisure/our-locations/stirling-leisure-mirrabooka,WA,AU
ChIJqcmyAw6vMioRxxGyzljKxlA,NS Fitness,"29 Grebe St, Stirling WA 6021, Australia",Stirling,-31.881702999999998,115.8042771,,,,,WA,AU
ChIJmbuOJwqwMioRTeWD3_jMP90,Stirling Leisure - Inglewood,"Suite 1 & 2/62 Alexander Dr, Inglewood WA 6052, Australia",Stirling,-31.9088154,115.87001140000001,4.2,704,+61 8 9205 7720,https://www.stirling.wa.gov.au/stirling-leisure/our-locations/stirling-leisure-inglewood,WA,AU
ChIJLSZ6wGKuMioRo2nSQ4Nr_DQ,Stirling Leisure - Hamersley,"20 Belvedere Rd, Hamersley WA 6022, Australia",Stirling,-31.851646700000003,115.80702339999999,4.4,184,+61 8 9205 7600,https://www.stirling.wa.gov.au/stirling-leisure/our-locations/stirling-leisure-hamersley,WA,AU
ChIJ7Ys3iSyvMioRzU_NsoRQL2M,Core Club Perth,"SHOP 6/51 Cedric St, Stirling WA 6021, Australia",Stirling,-31.886682999999994,115.80934099999999,4.3,6,,http://www.coreclubperth.com.au/,WA,AU
ChIJpYnnQYWlMioR4hocUvOFEW8,Shredded Health & Performance | Innaloo,"Tenancy 7/401 Scarborough Beach Rd, Innaloo WA 6018, Australia",Stirling,-31.9037033,115.8000678,4.9,150,+61 8 9284 0144,http://www.shredded.com.au/,WA,AU
ChIJO0_4hvOvMioRHl3-hMgjLQM,Revo Fitness Innaloo,"37 Ellen Stirling Blvd, Innaloo WA 6018, Australia",Stirling,-31.8990504,115.80210339999998,4,322,,https://revofitness.com.au/gyms/innaloo/?utm_term=plcid_7784039635843983749&utm_source=google&utm_medium=organic&utm_campaign=Google+My+Business&utm_content=Revo+Fitness+Innaloo,WA,AU
ChIJZYthoaOvMioRILGvzf63p74,Movement Co,"7/97 Hector St W, Osborne Park WA 6017, Australia",Stirling,-31.901732100000004,115.81941099999999,4.7,149,,http://www.movementco.com.au/,WA,AU
ChIJi0vbVPyuMioR_pv1KbIYKlE,Athletic Revolution,"782 N Beach Rd, Gwelup WA 6018, Australia",Stirling,-31.88174,115.79620000000001,4.6,61,+61 402 700 758,http://www.athleticrev.com.au/,WA,AU
ChIJwZfRoziuMioRCP057Ps881A,Stirling Central Shopping Centre,"478 Wanneroo Rd, Westminster WA 6061, Australia",Stirling,-31.8622876,115.8291809,4,1692,,https://www.stirlingcentral.com.au/,WA,AU
ChIJz6IoKsKdMioRi5JPSFtNu_0,HMAS Stirling Gym,"Garden Island WA 6168, Australia",Stirling,-32.2201991,115.68898759999998,4.4,58,,,WA,AU
ChIJlajxPt6uMioRyiLF07LNOYM,Stirling Leisure - Karrinyup,"2 Nerita Way, Karrinyup WA 6018, Australia",Stirling,-31.8844898,115.77980880000001,4,46,+61 8 9345 8555,https://www.stirling.wa.gov.au/stirling-leisure/venue-and-facility-hire,WA,AU
ChIJ28RBctivMioR2mnP51rNCZs,New Movement Perth,"Unit 6/7 Hector St W, Osborne Park WA 6017, Australia",Stirling,-31.8978479,115.81375589999999,4.7,78,+61 428 959 461,http://newmovementperth.com.au/,WA,AU
ChIJHdvrjiCvMioRVaiZ2QoKNg8,Stirling Physio,"734 Karrinyup Rd, Stirling WA 6021, Australia",Stirling,-31.889821999999995,115.8213519,4.9,53,+61 8 9440 6125,http://stirlingphysio.com.au/,WA,AU
ChIJiYCFU-mvMioRGecuXtCeXtY,Stirling Leisure – Tuart Hill Community Centre,"Cape St, Tuart Hill WA 6060, Australia",Stirling,-31.902894999999997,115.83532350000002,4.5,100,+61 8 9205 8489,https://www.stirling.wa.gov.au/leisure-and-culture/venue-and-facility-hire/?keyword=stirling%20community%20centres%20tuart%20hill&sort=score&page=1,WA,AU
ChIJexrki6WvMioRT5ALuZNZR84,You Can Do FIT,"Birralee Reserve, Bates Rd, Innaloo WA 6018, Australia",Stirling,-31.892598,115.79486399999999,5,33,+61 405 919 185,http://www.youcandofit.com.au/,WA,AU
ChIJjxUxm7-vMioR69Z0L0snozU,Stirling Leisure – Osborne Community Centre,"11 Royal St, Osborne Park WA 6017, Australia",Stirling,-31.896250199999997,115.8293472,4.5,35,+61 8 9205 7940,https://www.stirling.wa.gov.au/stirling-leisure/venue-and-facility-hire,WA,AU
ChIJoRLMdMOuMioRmLpg-a6kVNk,Foundry Fitness,"Shop COB104 Karrinyup Shopping Centre, 200 Karrinyup Rd, Karrinyup WA 6018, Australia",Stirling,-31.877290400000003,115.7812637,4.8,115,+61 8 9446 1051,https://foundryfitness.com.au/,WA,AU
ChIJ75BpYNWoMioRSaeZ1uXUn7I,Stirling Leisure – Karrinyup Community Centre,"Davenport St, Karrinyup WA 6018, Australia",Stirling,-31.875822000000003,115.7786217,4,7,+61 8 9205 8489,https://www.stirling.wa.gov.au/stirling-leisure/venue-and-facility-hire,WA,AU
ChIJsTPwW9S9MioR8rWSgspxilU,Snap Fitness 24/7 Cannington,"1448 Albany Hwy, Cannington WA 6107, Australia",Cannington,-32.0254954,115.94285149999997,4.4,228,+61 435 816 070,https://www.snapfitness.com/au/gyms/cannington?utm_source=google&utm_medium=organic&utm_campaign=GMB,WA,AU
ChIJr_PQLNO9MioRUwqeLePLVn8,DIY Fitness 24/7,"1407 Albany Hwy, Cannington WA 6107, Australia",Cannington,-32.022928,115.9385006,4.6,79,+61 8 9350 5000,http://diyfitness247.com.au/cannington/,WA,AU
ChIJk9_Y6Sm9MioR5x-Z5st8LVQ,Royalty Fitness 24/7,"1262 Albany Hwy, Cannington WA 6107, Australia",Cannington,-32.011981299999995,115.9274435,4.8,75,+61 407 835 438,https://www.royaltyfitness.com.au/,WA,AU
ChIJ-erj3iW8MioRuyHr5sLeI3I,Cannington Leisureplex,"Wharf St &, Sevenoaks St, Cannington WA 6107, Australia",Cannington,-32.0105171,115.9406356,4.2,1139,+61 8 6350 7300,https://www.canning.wa.gov.au/sport-and-fitness/leisureplexes/,WA,AU
ChIJ6erkwvu9MioRraSO-s4iMAI,Revo Fitness - Cannington,"1382 Albany Hwy, Cannington WA 6107, Australia",Cannington,-32.0188172,115.9364287,3.8,211,+61 1300 738 638,https://revofitness.com.au/gyms/cannington/?utm_term=plcid_6623900770869507374&utm_source=google&utm_medium=organic&utm_campaign=Google+My+Business&utm_content=Revo+Fitness+-+Cannington,WA,AU
ChIJ8ZsAcR69MioR2C2y8Ce2IkY,Fitstop Cannington,"1/1399 Albany Hwy, Cannington WA 6107, Australia",Cannington,-32.0225109,115.93822,5,110,+61 400 441 406,https://fitstop.com/au/web/locations/au/Cannington,WA,AU
ChIJH8C6BjK8MioR-QmBSHPMhWE,Goodlife Health Clubs Cannington,"1355 Albany Hwy, Cannington WA 6107, Australia",Cannington,-32.019042999999996,115.9346965,3.2,565,+61 8 6282 0885,https://www.goodlife.com.au/clubs/cannington/?utm_source=gbp&utm_medium=organic&utm_campaign=GL%20-%20AO%20-%20GBP%20-%20GOO%20-%20AU&utm_content=Goodlife%20Health%20Clubs%20Cannington&utm_term=plcid_361134889447346416,WA,AU
ChIJewB3DH6-MioRgVOIVH16-so,Fitness HQ - Cannington,"Unit 3/385 Sevenoaks St, Beckenham WA 6107, Australia",Cannington,-32.02203000000001,115.95218789999998,4.9,104,+61 435 666 716,http://www.thefitnesshq.com.au/,WA,AU
ChIJB3QXrH6-MioRDF0dfjy966I,Fernwood Fitness,"34 William St, Beckenham WA 6107, Australia",Cannington,-32.0253709,115.95248159999998,3.9,139,+61 8 9358 6222,https://www.fernwoodfitness.com.au/clubs/cannington,WA,AU
ChIJOamasaq_MioRBCRaSN-j-ZM,BFT Cannington,"6B/1480 Albany Hwy, Beckenham WA 6107, Australia",Cannington,-32.0261353,115.948483,5,62,+61 481 993 513,http://www.bft.fit/cannington/gb,WA,AU
ChIJKWkd4Xi-MioRBJN0BlLW2GM,Orbit Fitness Equipment - Cannington,"1500 Albany Hwy, Beckenham WA 6107, Australia",Cannington,-32.0270389,115.94893289999999,4.8,275,+61 8 6241 3002,https://www.orbitfitness.com.au/?utm_source=gmb&utm_medium=organic&utm_campaign=local&utm_term=cannington,WA,AU
ChIJq4VVkmu8MioRVCp8vPVpeIk,Anytime Fitness Bentley,"1141 Albany Hwy, Bentley WA 6102, Australia",Cannington,-32.0022182,115.91893340000001,4.3,190,+61 8 9258 3972,https://www.anytimefitness.com.au/gyms/au-1289/bentley-wa-6102/?utm_source=google&utm_medium=organic&utm_campaign=gmb,WA,AU
ChIJE87GtDG8MioRamiJlCI35ls,Nutrition Warehouse Cannington,"6/1326 Albany Hwy, Cannington WA 6107, Australia",Cannington,-32.0166604,115.93291310000001,4.7,196,+61 8 9358 2408,https://www.nutritionwarehouse.com.au/,WA,AU
ChIJp163e3W9MioRNzXMfae2b3Y,SpeedFit Cannington,"7/1252 Albany Hwy, Cannington WA 6107, Australia",Cannington,-32.0118396,115.92721259999999,4.9,63,+61 8 6183 9890,https://joinspeedfit.com/location/cannington-wa/,WA,AU
ChIJi6Di7DG8MioR6rJfhTADe4I,Chemist Warehouse Cannington South,"Shop 2 1425 to/1427 Albany Hwy, Cannington WA 6107, Australia",Cannington,-32.024611300000004,115.93996949999999,3.3,478,+61 8 9358 5888,https://www.chemistwarehouse.com.au/,WA,AU
ChIJzTb1doC-MioR3I-MkUVVr1c,Muscle Pit,"25 Crawford St, Cannington WA 6107, Australia",Cannington,-32.0206811,115.94874180000001,4.8,38,+61 401 579 419,https://musclepit.com.au/,WA,AU
ChIJB6JwszG8MioRVX7IXMRcHHY,Cobra Martial Arts & Fitness Centre - Cannington,"Unit 4/1326 Albany Hwy, Cannington WA 6107, Australia",Cannington,-32.016374,115.93297930000001,4.8,54,+61 8 9358 3000,http://www.cobramartialarts.com.au/,WA,AU
ChIJk9q1Jmu8MioRVRdwT2LXvDc,Genesis Health and Fitness,"1140 Albany Hwy, Bentley WA 6102, Australia",Cannington,-32.0022114,115.9218015,4.1,368,+61 8 9356 3344,https://www.genesisfitness.com.au/gym/wa/bentley?utm_source=google&utm_medium=organic&utm_campaign=gmb&utm_content=bentley,WA,AU
ChIJxZUv5ROlMioRw6U1of_znVA,Plus Fitness 24/7 Subiaco,"7/531 Hay St, Subiaco WA 6008, Australia",Subiaco,-31.9474771,115.82192440000001,4.6,68,+61 8 9381 8100,https://www.plusfitness.com.au/gyms/subiaco,WA,AU
ChIJLfIk1xWlMioRTm-Vj7W_NgM,Goodlife Health Clubs Subiaco,"The Colonnade, 388 Hay St, Subiaco WA 6008, Australia",Subiaco,-31.9466296,115.82616889999998,3.8,194,+61 8 9436 7500,https://www.goodlife.com.au/clubs/subiaco/?utm_source=gbp&utm_medium=organic&utm_campaign=GL%20-%20AO%20-%20GBP%20-%20GOO%20-%20AU&utm_content=Goodlife%20Health%20Clubs%20Subiaco&utm_term=plcid_5789586969296577168,WA,AU
ChIJF8-7fg2lMioRfUnt9QdQlZI,Lords Recreation Centre,"5 Wembley Ct, Subiaco WA 6008, Australia",Subiaco,-31.9463509,115.81637070000001,4.1,424,+61 8 6229 6600,http://www.lords.com.au/?utm_source=GMBlisting&utm_medium=organic,WA,AU
ChIJoUOkHhalMioRmlwhOmYm2SI,LA Fit Subiaco,"319 Hay St, Subiaco WA 6008, Australia",Subiaco,-31.9472936,115.8282337,5,155,+61 8 9380 4249,https://www.lafitstudio.com.au/,WA,AU
ChIJUTaHNgClMioRy076Zxn9uIQ,DFRNT Health and Fitness Subiaco,"17/55 Salvado Rd, Subiaco WA 6008, Australia",Subiaco,-31.943077499999998,115.8202982,5,57,+61 404 300 065,http://dfrnthealthandfitness.com.au/,WA,AU
ChIJISo0Nl6lMioRHcKUQYS6i_E,Conditn Subiaco,"9 Forrest St, Subiaco WA 6008, Australia",Subiaco,-31.948117,115.8218099,5,14,+61 415 353 326,https://conditn.com/,WA,AU
ChIJEwA4Pu2lMioRFE3D-b_ugZM,Strength Lab Pilates,"Entrance at Rear on Car Park, 335 Churchill Ave, Subiaco WA 6008, Australia",Subiaco,-31.948119799999997,115.824587,4.7,22,+61 424 360 581,http://www.strength-lab.com.au/,WA,AU
ChIJdd-ffdSlMioRkAXIOH_qHGY,S30 Subiaco,"375 Roberts Rd, Subiaco WA 6008, Australia",Subiaco,-31.945562199999994,115.82459649999998,4.5,17,+61 483 949 248,https://www.s30studio.com.au/subiaco,WA,AU
ChIJP9OFAIqlMioRXQ8lPdjI8Gw,Ditto Club,"32 Townshend Rd, Subiaco WA 6008, Australia",Subiaco,-31.9465054,115.82872739999999,5,32,+61 468 042 089,https://ditto.club/,WA,AU
ChIJj4HjUO-lMioRP4RI_kAnaM8,Physique Performance Specialists Subiaco,"105 Hay St, Subiaco WA 6008, Australia",Subiaco,-31.947404399999996,115.8344539,5,72,+61 415 927 459,https://www.physiqueperformancespecialists.com.au/,WA,AU
ChIJBdyNgGalMioRA5gzobBCZBI,The Fitness Hub Subiaco,"358 Rokeby Rd, Subiaco WA 6008, Australia",Subiaco,-31.954901800000002,115.82421319999999,5,17,+61 423 535 798,https://thefitnesshubsubiaco.com.au/,WA,AU
ChIJNfcEAhGlMioR9VlqlGgGbCg,Tom Dadour Community Centre,"Rear/363 Bagot Rd, Subiaco WA 6008, Australia",Subiaco,-31.9505403,115.82016479999999,4.4,22,+61 8 6229 6600,http://www.lords.com.au/,WA,AU
ChIJjbw0CROlMioRNeeHSORfgJA,Intense Health,"11/3 Centro Ave, Subiaco WA 6008, Australia",Subiaco,-31.945194299999994,115.8205114,5,10,+61 401 261 702,http://www.intensehealth.com/,WA,AU
ChIJqUaq6iClMioRhrxRZKIB6wg,Exclusive Personal Training Subiaco,"Storie Lane (Between 500, 502 Hay St, Subiaco WA 6008, Australia",Subiaco,-31.9468898,115.82197479999999,5,73,+61 421 865 475,http://www.eptcoaching.com/,WA,AU
ChIJwQB5sGilMioRfWhyh3GIPFU,Scot Henderson,"Centro Ave, Subiaco WA 6008, Australia",Subiaco,-31.944985300000003,115.82084109999998,,,+61 408 512 398,,WA,AU
ChIJF0hY6eOlMioRKGpxiswNdA4,@Pilates 24/7 Subiaco,"Shop 1/531 Hay St, Subiaco WA 6008, Australia",Subiaco,-31.947514799999997,115.82154790000001,5,6,+61 402 440 180,https://atpilates.studio/location/subiaco/,WA,AU
ChIJwb4gdSelMioRXn7bMca6SNE,Motion Lifestyle Subiaco,"19 Rokeby Rd, Subiaco WA 6008, Australia",Subiaco,-31.945951299999997,115.82391709999999,4.6,18,+61 449 691 778,https://www.motionlifestyle.com.au/,WA,AU
ChIJGyFcSj-lMioRxwzggmMddkc,Snap Fitness 24/7 West Leederville,"109 Cambridge St, West Leederville WA 6007, Australia",Subiaco,-31.9408636,115.8342126,4.9,603,+61 432 152 221,https://www.snapfitness.com/au/gyms/west-leederville?utm_source=gmb&utm_medium=yext,WA,AU
ChIJq2F2u0ClMioRnVxOckF3lYM,Fuller Fittness,"5 Wembley Ct, Subiaco WA 6008, Australia",Subiaco,-31.946423799999998,115.81632379999999,5,4,+61 410 440 747,http://www.fullerfitness.com.au/,WA,AU
ChIJ4f1Pr3elMioRLyVKJW5xSsE,CycleBar Subiaco,"375 Hay St, Subiaco WA 6008, Australia",Subiaco,-31.947563700000003,115.82657429999998,4.9,110,+61 405 449 180,https://www.cyclebar.com.au/location/cyclebar-aus-subiaco,WA,AU
ChIJt77o9zmlMioRYwnjZzUdTZI,Perth Modern School Gymnasium,"90 Roberts Rd, Subiaco WA 6008, Australia",Subiaco,-31.943955799999998,115.83953290000001,3.7,21,,,WA,AU
ChIJD-6GvoyvMioR0cke4IzQ6ic,Stadium Fitness,"278 Scarborough Beach Rd, Osborne Park WA 6017, Australia",Osborne Park,-31.9138722,115.82739219999999,4.7,175,+61 432 445 603,https://stadiumfitness.com.au/,WA,AU
ChIJhXxd2Z2vMioRsMfqTieOokc,Fitness Cartel Health Clubs Osborne Park - 24/7 Gym,"Unit 8/454 Scarborough Beach Rd, Osborne Park WA 6017, Australia",Osborne Park,-31.9062266,115.8105107,4.8,152,+61 8 6384 4377,https://www.fitnesscartel.com.au/clubs/osborne-park/,WA,AU
ChIJkWO7AjSxMioRIB7pKcEX7HA,Founders Fitness 24/7 Gym,"18/69 Hector St W, Osborne Park WA 6017, Australia",Osborne Park,-31.9012728,115.81678020000001,5,211,+61 8 6255 8805,https://foundersfitness.com.au/,WA,AU
ChIJL51IgdSvMioR_3tUITMduP8,150Bpm 24/7 GYM,"239 Main St, Osborne Park WA 6017, Australia",Osborne Park,-31.894742599999997,115.82781109999999,4.9,35,+61 422 771 100,https://www.150bpm.com.au/,WA,AU
ChIJfXBEhb-vMioRoqTFUK7JB4U,Snap Fitness Osborne Park 24/7,"Shop 1/221 Main St, Osborne Park WA 6017, Australia",Osborne Park,-31.896787999999997,115.8276808,4,175,+61 452 227 556,https://www.snapfitness.com/au/gyms/osborne-park?utm_source=google&utm_medium=organic&utm_campaign=GMB,WA,AU
ChIJ___vT5evMioRZUYolfPhqFk,THE PE4K,"REAR, Rear/72 Collingwood St, Osborne Park WA 6017, Australia",Osborne Park,-31.905637699999996,115.81761929999999,5,22,+61 438 935 430,https://www.thepe4k.com/,WA,AU
ChIJY2HsM6WvMioRdq2BPZV95bI,BFT Osborne Park,"325 Harborne St, Osborne Park WA 6017, Australia",Osborne Park,-31.9167757,115.81954940000001,5,53,+61 412 658 746,https://bodyfittraining.com/club/OsbornePark?utm_source=extnet&utm_medium=search&utm_campaign=franchise_lead_gen,WA,AU
ChIJORX3n6yvMioRUj2k4MLpkw0,LX Fitness,"8/505 Scarborough Beach Rd, Osborne Park WA 6017, Australia",Osborne Park,-31.904947199999995,115.80276479999999,4.9,91,,https://www.lxfitness.com.au/,WA,AU
ChIJ42uoopmvMioRzTAy9ewD4lI,Dynamo Fitness Equipment - Osborne Park,"17/69 Hector St W, Osborne Park WA 6017, Australia",Osborne Park,-31.9011781,115.81687620000001,4.9,319,+61 8 6371 2858,https://dynamofitness.com.au/,WA,AU
ChIJZcbYqpevMioRCDDTjyy8qbM,PrimeFit - Small Group Class Personal Training Osborne Park,"Unit 7/44 Hutton St, Osborne Park WA 6017, Australia",Osborne Park,-31.902823699999995,115.82021219999999,5,67,+61 8 9201 9339,https://primefit.com.au/,WA,AU
ChIJoScH6J6vMioR6gyITynYy9w,Flex Fitness Equipment - Osborne Park,"28 Hutton St, Osborne Park WA 6017, Australia",Osborne Park,-31.904895699999997,115.81683339999998,4.8,149,+61 8 9444 7871,http://www.flexequipment.com.au/,WA,AU
ChIJIWUSUHSvMioRgKpyDkHe65U,Aspire Group,"1 Pearson Way, Osborne Park WA 6017, Australia",Osborne Park,-31.908278099999997,115.8009,4.8,32,+61 407 826 282,https://aspire-group.com.au/,WA,AU
ChIJd9rZbJ-vMioR8_iewCMjnaU,Orbit Fitness Equipment - Osborne Park,"1/443 Scarborough Beach Rd, Osborne Park WA 6017, Australia",Osborne Park,-31.9072368,115.8101977,4.8,335,+61 8 6241 3000,https://www.orbitfitness.com.au/?utm_source=gmb&utm_medium=organic&utm_campaign=local&utm_term=osbornepark,WA,AU
ChIJARGF_lmlMioR5mwCS06-vAE,Riddlers Gym,"19 Main St, Osborne Park WA 6017, Australia",Osborne Park,-31.912675099999998,115.8279731,4.9,101,+61 499 446 534,http://www.riddlersgym.com.au/,WA,AU
ChIJRYMbq3WvMioRyecx3HnBkDU,Euphonic Fitness,"1 Pitino Ct, Osborne Park WA 6017, Australia",Osborne Park,-31.8983356,115.80799970000001,5,140,+61 466 716 768,http://www.euphonicfitness.com/,WA,AU
ChIJZZkfDYWvMioR6AMCgYQzqpQ,Strength Club Perth,"3/30 Collingwood St, Osborne Park WA 6017, Australia",Osborne Park,-31.9024405,115.8142962,4.8,27,,http://www.strengthclubperth.com/,WA,AU
ChIJEZr2-Z-vMioR7p-yPAugSOo,Elite Fitness Equipment Osborne Park,"shop 2/455 Scarborough Beach Rd, Osborne Park WA 6017, Australia",Osborne Park,-31.906413999999998,115.80929569999999,4.7,87,+61 8 9244 1433,https://elitefitnessperth.com.au/,WA,AU
ChIJx7-QwO6vMioRfJtEXsEnP3s,Scotts Gym,"2/7 Guthrie St, Osborne Park WA 6017, Australia",Osborne Park,-31.900177399999997,115.81049089999998,,,+61 427 686 667,https://scottmccallfitness.com/,WA,AU
ChIJf-xODNaxMioRVvsjJ5Hg8U8,Lordy's Gym,"Unit 4/135 Russell St, Morley WA 6062, Australia",Morley,-31.901246599999997,115.8993307,5,41,+61 402 893 161,http://lordysgym.com.au/,WA,AU
ChIJJUjm-waxMioR2chKH6j2sXQ,Revo Fitness - Morley,"Gateway Shopping Centre, Shop 10/60 Russell St, Morley WA 6062, Australia",Morley,-31.896735299999996,115.89570359999999,4.5,394,+61 1300 738 638,https://revofitness.com.au/gyms/morley/?utm_term=plcid_16188944209025763576&utm_source=google&utm_medium=organic&utm_campaign=Google+My+Business&utm_content=Revo+Fitness+-+Morley,WA,AU
ChIJRan4IjixMioRQ4tzO4EX7jw,Snap Fitness 24/7 Morley,"Shop 2/484 Walter Rd E, Morley WA 6062, Australia",Morley,-31.8952404,115.92315049999999,4.7,182,+61 416 235 449,https://www.snapfitness.com/au/gyms/morley?utm_source=gmb&utm_medium=yext,WA,AU
ChIJ0_O6q6CxMioRTXbkq0Pw37Y,Genesis Health & Fitness Morley,"222 Walter Rd W, Morley WA 6062, Australia",Morley,-31.8971484,115.8947311,4,108,+61 8 9276 8166,https://www.genesisfitness.com.au/gym/wa/morley?utm_source=google&utm_medium=local&utm_campaign=gmb_listing,WA,AU
ChIJUYxhcaGwMioRBHgohYSWN7c,Plus Fitness 24/7 Morley,"Unit 7/533 Walter Rd E, Morley WA 6062, Australia",Morley,-31.893933999999998,115.926947,4.3,118,+61 8 9279 1611,https://www.plusfitness.com.au/gyms/morley/,WA,AU
ChIJ85alFC6xMioRC05KcgGC3q8,Bemore Fitness Morley,"Unit 1/85/91 Broun Ave, Morley WA 6062, Australia",Morley,-31.902510600000003,115.9033726,4.9,132,+61 8 9271 3764,https://bemorefitness.com.au/,WA,AU
ChIJifneEXaxMioRY5UMMMzPmoY,The Iron Den Gym - Morley,"Unit 3/8 Dewar St, Morley WA 6062, Australia",Morley,-31.900346600000002,115.90115069999999,5,43,+61 420 616 506,https://www.irondengym.com.au/,WA,AU
ChIJi1K0jnywMioRaTy6yj_EmBA,Sista Fitness 24/7 Morley,"2/222 Walter Rd W, Morley WA 6062, Australia",Morley,-31.897209999999998,115.894607,4.4,62,+61 8 6311 5544,http://sistafitness.com.au/,WA,AU
ChIJ_W4lM967MioRaTtoHLBGnzU,BFT Morley,"213-215 Collier Rd, Bayswater WA 6053, Australia",Morley,-31.904138999999997,115.9185645,4.9,150,+61 423 510 195,https://bodyfittraining.com/club/Morley?utm_source=extnet&utm_medium=search&utm_campaign=franchise_lead_gen,WA,AU
ChIJxQrP8oCwMioRcXHENijvD-Q,Anytime Fitness,"2/140 Russell St, Morley WA 6062, Australia",Morley,-31.901218399999998,115.9006118,4.5,130,+61 488 110 979,https://www.anytimefitness.com/en-au/locations/morley-western-australia-au-1412,WA,AU
ChIJtdtODnawMioRnh2TD0Ixne8,Snap Fitness Dianella 24/7,"137 Walter Rd W, Dianella WA 6059, Australia",Morley,-31.9003934,115.88800979999999,4.7,198,+61 412 621 225,https://www.snapfitness.com/au/gyms/dianella/,WA,AU
ChIJB4UWZI-xMioRk1t47oxAT2Q,Small Goods Gym,"21 Rudloc Rd, Morley WA 6062, Australia",Morley,-31.9012069,115.89618879999999,5,101,+61 404 839 852,http://smallgoodsgym.com/,WA,AU
ChIJi1IX1GKwMioR8ibqkC4V76c,Morley Sport & Recreation Centre,"Morley Sport & Recreation Cent, 12 Wellington Rd, Morley WA 6062, Australia",Morley,-31.893011399999995,115.89664490000001,4.3,289,+61 8 9375 3529,https://bayswaterrec.wa.gov.au/morley-sports-recreation/,WA,AU
ChIJoabWFXyxMioR9oVG3qmd2gg,SpeedFit Morley,"7/85-91 Broun Ave, Morley WA 6062, Australia",Morley,-31.902356400000002,115.90354369999999,4.8,43,+61 8 6155 8933,https://joinspeedfit.com/location/morley-wa/,WA,AU
ChIJEQHSyXG6MioRfY77H6RgTJY,Plus Fitness 24/7 Bayswater WA,"3/68 Beechboro Rd S, Bayswater WA 6053, Australia",Morley,-31.910389,115.91466259999999,4.4,67,+61 8 9271 8755,https://www.plusfitness.com.au/gyms/bayswaterwa/?utm_source=google&utm_medium=organic&utm_campaign=place-business-listing,WA,AU
ChIJ8UWtIXywMioRwkE8aoiFgYY,KICKASS MMA,"26 Boag Pl, Morley WA 6062, Australia",Morley,-31.8999717,115.89605869999998,4.9,75,+61 410 869 703,http://www.kickassmma.com.au/,WA,AU
ChIJX88AkEawMioRm2U4SV82y2Y,Body MBrace Health & Fitness,"156 Wellington Rd, Morley WA 6062, Australia",Morley,-31.8798666,115.8810002,5,57,+61 8 9375 3735,http://bodymbrace.com.au/,WA,AU
ChIJEaCAnYSwMioRyLtTMNDzM58,Bayswater Waves,"Cnr Broun Avenue, and, Priestley St, Embleton WA 6062, Australia",Morley,-31.897845900000004,115.9103646,4.1,1485,+61 8 9276 6538,https://bayswaterrecreation.com.au/waves/?utm_source=google&utm_medium=organic&utm_campaign=gmb,WA,AU
ChIJ1TD2Y_OxMioRWU25B6-CPQ0,Studio Dre,"Unit 2/99 Catherine St, Morley WA 6062, Australia",Morley,-31.9024918,115.8996078,4.8,65,+61 435 839 275,http://www.studiodre.com.au/,WA,AU
ChIJvXuKeYCwMioRMXL85OKDmHU,Physique Performance Specialists Morley,"6/101 Catherine St, Morley WA 6062, Australia",Morley,-31.9024784,115.9000647,4.9,122,+61 415 927 459,https://www.physiqueperformancespecialists.com.au/,WA,AU
ChIJrfbQAIGwMioRSzJUj7o7zNs,The Shed CrossFit,"4/3 Marchant Way, Morley WA 6062, Australia",Morley,-31.9008315,115.90277800000001,5,41,+61 422 277 735,https://www.theshedcrossfit.com.au/,WA,AU
ChIJ_x9oIXywMioRGb0Ijtgr2Zw,Emplify Fitness Kickboxing - Morley,"2/20 Boag Pl, Morley WA 6062, Australia",Morley,-31.899762,115.89533399999999,4.9,26,+61 497 004 494,https://www.emplify.com.au/kickboxing-location-morley/,WA,AU
ChIJD4lz1mKwMioRx2S05GiDZZs,Seldys Gym,"5/5 Wellington Rd, Morley WA 6062, Australia",Morley,-31.8944291,115.8962119,5,19,+61 404 105 011,https://www.seldysgym.com.au/,WA,AU
ChIJ8c89TYOxMioReOCJYOP-DAQ,XO FIT NORANDA 24/7 GYM / SAUNA,"42 Benara Rd, Noranda WA 6062, Australia",Morley,-31.8770336,115.89524159999999,4.6,70,+61 1300 963 487,https://xofit.com.au/,WA,AU
ChIJayOZ-0mkMioRgBxn1R5_mfM,Revo Fitness Claremont,"3 Davies Rd, Claremont WA 6010, Australia",Claremont,-31.978758000000003,115.7818152,4.3,332,+61 1300 738 638,https://revofitness.com.au/gyms/claremont/?utm_term=plcid_2985208941869999950&utm_source=google&utm_medium=organic&utm_campaign=Google+My+Business&utm_content=Revo+Fitness+Claremont,WA,AU
ChIJNaeecUikMioR5Hi0Np83f_s,Snap Fitness 24/7 Claremont,"301 Stirling Hwy, Claremont WA 6010, Australia",Claremont,-31.9822861,115.7832522,4.9,219,+61 414 970 317,https://www.snapfitness.com/au/gyms/claremont?utm_source=gmb&utm_medium=yext,WA,AU
ChIJNSkBcUWkMioR3lc-BwIhqgg,Essence Fitness,"1 Bay Rd, Claremont WA 6010, Australia",Claremont,-31.9819717,115.7906417,4.4,21,+61 8 9386 8588,http://www.essencefitness.com.au/,WA,AU
ChIJ7RNKrNylMioRz48ZUI-Z5w8,Adapt Health Club,"208 Stirling Hwy, Claremont WA 6010, Australia",Claremont,-31.9820049,115.78959649999999,5,25,,http://www.adapthealthclub.com.au/,WA,AU
ChIJ6ZdV3EmkMioR2Du8Z7RiWCo,Method Health,"30 Lapsley Rd, Claremont WA 6010, Australia",Claremont,-31.976776599999994,115.78017439999999,4.9,39,+61 468 099 777,http://www.methodhealth.com.au/,WA,AU
ChIJZVTkd1GkMioRGyOuv9CHJX8,CrossFit Claremont,"Gate 8 Ashton Avenue, Milton Ibister Pavilion, Claremont WA 6010, Claremont WA 6154, Australia",Claremont,-31.9725498,115.7872421,5,79,+61 439 347 514,https://www.crossfitclaremont.com.au/,WA,AU
ChIJHVzEOkikMioRKUbaP9H1nt8,Intense Health,"Unit 6 44/42 Gugeri St, Claremont WA 6010, Australia",Claremont,-31.981299,115.78220429999998,5,5,+61 401 261 702,http://www.intensehealth.com/,WA,AU
ChIJhzxwG0akMioR_19oB3oL5OI,RPT - Results Personal Training,"250 Stirling Hwy, Claremont WA 6010, Australia",Claremont,-31.982728199999997,115.78595609999998,5,8,+61 8 9385 0770,https://m.facebook.com/profile.php?id=687893587957635,WA,AU
ChIJD_MqgDekMioRzPQ_qmM9V3w,SpeedFit Claremont,"7/40 St Quentin Ave, Claremont WA 6010, Australia",Claremont,-31.983371899999998,115.7780124,4.9,36,+61 485 018 880,https://joinspeedfit.com/location/claremont-wa/,WA,AU
ChIJ35VlLDWlMioR8Zwh90qHI7Y,Bodies By Ryan,"1 Graylands Rd, Claremont WA 6010, Australia",Claremont,-31.977562400000004,115.7860406,4.9,83,+61 400 850 782,https://www.bodiesbyryan.com.au/,WA,AU
ChIJt-7ZJ_ikMioR9ziNu4aYnC4,Positive Lifestyle Training,"61 Adderley St, Mount Claremont WA 6010, Australia",Claremont,-31.9691873,115.7763269,5,7,+61 423 088 997,http://www.positivelifestyletraining.com.au/,WA,AU
ChIJt2bwhVqkMioRYLv4CNmz1HA,Anytime Fitness Nedlands,"162 Stirling Hwy, Nedlands WA 6009, Australia",Claremont,-31.981126099999997,115.7935282,4.5,95,+61 434 093 611,http://www.anytimefitness.com.au/gyms/au-1467/nedlands-wa-6009,WA,AU
ChIJMcK9od2lMioRIiOwuWb-ZiE,Revo Fitness Stadium,"3 Davies Rd, Claremont WA 6010, Australia",Claremont,-31.9782114,115.7828391,4.5,51,+61 1300 738 638,https://revofitness.com.au/revo-fitness-stadium/,WA,AU
ChIJ_R1liI2lMioRiDKr-N2lGyM,StretchLab,"Shop 10, Times Square, Unit 1/26 Avion Way, Claremont WA 6010, Australia",Claremont,-31.9836381,115.779202,4.9,51,+61 8 6478 7815,https://www.stretchlab.com.au/location/claremont,WA,AU
ChIJeSU5sIalMioRfCfqU5T1wf0,Club Mello,"28/50 Bay View Terrace, Claremont WA 6010, Australia",Claremont,-31.982652400000003,115.78144540000001,5,29,,https://www.clubmello.com.au/,WA,AU
ChIJ3ez8GNW6MioR83L2WenmVLQ,The Conditioning Co.,"Revo Fitness, 3 Davies Rd, Claremont WA 6010, Australia",Claremont,-31.978181299999996,115.78193290000002,5,14,+61 401 211 741,https://www.theconditioningco.com.au/home,WA,AU
ChIJ3ftBO8SlMioR6BNn6AD82OM,Chris Wilson Fitness Studio,"108 Stirling Hwy, Nedlands WA 6009, Australia",Claremont,-31.9799348,115.8009379,5,178,+61 1300 002 978,http://www.chriswilsonpt.com/,WA,AU
ChIJVR9eAJGlMioRy4xAWT_8y2A,Fitness HC 24/7 Nedlands,"83 Stirling Hwy, Nedlands WA 6009, Australia",Claremont,-31.9787386,115.80420989999998,3.1,32,+61 452 269 935,https://fitnesshc247.com.au/nedlands-gym/,WA,AU
ChIJlUSevIulMioRcX1eri9nAhM,Balanze,"Lower level, 322 Stirling Hwy, Claremont WA 6010, Australia",Claremont,-31.9835491,115.78095139999998,5,79,+61 434 960 610,https://balanze.com.au/,WA,AU
ChIJSyyaldWlMioRPHbCjwdPvoo,Studio Pilates International Claremont,"12a Gugeri St, Claremont WA 6010, Australia",Claremont,-31.9819209,115.7787474,4.9,102,+61 436 006 944,https://www.studiopilates.com/studios/claremont,WA,AU
ChIJpYpU6zWkMioROQtuq9w2mCs,Aspire Physiotherapy Claremont,"9/29 Strickland St, Mount Claremont WA 6010, Australia",Claremont,-31.965928,115.7751634,5,38,+61 8 6185 1589,https://aspirephysioclaremont.com.au/,WA,AU
ChIJI1FtlL-lMioRZjAGqVChtKM,Perth HPC,"100 Stephenson Ave, Mount Claremont WA 6010, Australia",Claremont,-31.952489099999998,115.78218899999997,4.2,362,+61 8 9441 8222,https://www.perthhpc.com.au/?utm_source=google&utm_medium=organic&utm_campaign=gmb,WA,AU
ChIJi8NKRgClMioRTwWNyUsK7Q8,Revo Fitness Head Office,"216 Stirling Hwy, Claremont WA 6010, Australia",Claremont,-31.9819309,115.78924749999999,1,1,,https://revofitness.com.au/our-story/,WA,AU
ChIJg-v1jCekMioRJ30QsnDIN2Y,Workout Fitness Centre,"36 Eric St, Cottesloe WA 6011, Australia",Claremont,-31.989484400000002,115.7573122,5,3,+61 418 950 112,,WA,AU
ChIJJ2lxdNK6MioRDBQyxpvaAhg,Revo Fitness - Northbridge,"63 John St, Northbridge WA 6003, Australia",Northbridge,-31.944541899999994,115.8518138,3.9,296,+61 1300 738 638,https://revofitness.com.au/gyms/northbridge/?utm_term=plcid_12619843575886421716&utm_source=google&utm_medium=organic&utm_campaign=Google+My+Business&utm_content=Revo+Fitness+-+Northbridge,WA,AU
ChIJdUBDi7a6MioR6KuEd09PnrE,Plus Fitness,"3/448 Fitzgerald St, North Perth WA 6006, Australia",Northbridge,-31.9315972,115.85945099999999,4.1,70,+61 409 555 376,https://www.plusfitness.com.au/gyms/north-perth/?utm_source=google&utm_medium=organic&utm_campaign=place-business-listing,WA,AU
ChIJSUkxnfC7MioRrP9cSaQFn8Y,GDS Fitness,"555 Wellington St, Perth WA 6000, Australia",Northbridge,-31.950955199999996,115.85679429999998,5,11,+61 424 203 189,,WA,AU
ChIJ95cemkqlMioRIKfxGLbwBA8,Beatty Park Leisure Centre,"220 Vincent St, North Perth WA 6006, Australia",Northbridge,-31.9356784,115.8495864,4.4,2071,+61 8 9273 6080,https://www.beattypark.com.au/,WA,AU
ChIJu4WzLpO7MioR0-MQ3_F3z8c,Steel Fitness,"6 Church St, Perth WA 6000, Australia",Northbridge,-31.943694899999997,115.85865969999999,4.9,9,+61 422 993 233,,WA,AU
ChIJuyONVRy7MioR_vBLO9yfMeU,Ability Gym,"Perth WA 6000, Australia",Northbridge,-31.9523123,115.861309,5,2,+61 435 101 226,http://www.abilitygym.com.au/,WA,AU
ChIJH6FxzRq7MioRQn4yvHyrA94,Chris Wilson Fitness Studio,"93 Brisbane St, Perth WA 6000, Australia",Northbridge,-31.944085699999995,115.8653231,5,125,+61 1300 002 978,http://www.chriswilsonpt.com/,WA,AU
ChIJ31lyud-7MioRJfECFmNQ1rc,Society Fitness at The Switch,"555 Wellington St, Perth WA 6000, Australia",Northbridge,-31.951107099999994,115.8569011,,,+61 474 806 813,,WA,AU
ChIJrQU07O2lMioR-4XfJUCbu_4,Identity Gym,"525 Newcastle St, West Perth WA 6005, Australia",Northbridge,-31.9409637,115.849145,5,70,,http://www.identitygym.com.au/,WA,AU
ChIJO9zgt9OlMioRlhxPDnaWoSs,BFT West Perth,"160 Railway Parade, West Perth WA 6007, Australia",Northbridge,-31.9424428,115.8396364,5,56,+61 404 639 900,https://bodyfittraining.com/club/WestPerth?utm_source=extnet&utm_medium=search&utm_campaign=franchise_lead_gen,WA,AU
ChIJvSY4ttq6MioRV-JyUaAf-KE,LA Fit Highgate,"91 Brisbane St, Perth WA 6000, Australia",Northbridge,-31.944129999999998,115.8654,4.9,90,+61 8 9227 9070,https://www.lafitstudio.com.au/,WA,AU
ChIJMYDi5CWlMioRxjteqzJu0vQ,Next Gen Kings Park,"21 Kings Park Rd, Enter via, Jorang Grv, Kings Park WA 6005, Australia",Northbridge,-31.954074799999994,115.83952329999998,4.4,559,+61 8 9217 6300,https://www.nextgenclubs.com.au/location/kings-park/,WA,AU
ChIJU5Gp1HW7MioRewfombqqPO8,Revo Fitness - Victoria Park,"341 Albany Hwy, Victoria Park WA 6100, Australia",Victoria Park,-31.973660300000002,115.89656269999999,4,305,+61 1300 738 638,https://revofitness.com.au/gyms/victoria-park/?utm_term=plcid_13906129959435557213&utm_source=google&utm_medium=organic&utm_campaign=Google+My+Business&utm_content=Revo+Fitness+-+Victoria+Park,WA,AU
ChIJA3SchWy7MioR3sZZk6XfVSI,XS Fitness Vic Park Gym,"396 Mill Point Rd, Victoria Park WA 6100, Australia",Victoria Park,-31.973955699999998,115.8824492,4.8,92,+61 8 6498 6001,https://xsfitness.com.au/membership-options/,WA,AU
ChIJLZhs0Si7MioRUh15LQIJWHQ,Females over 45 Fitness,"484 Albany Hwy, Victoria Park WA 6100, Australia",Victoria Park,-31.976456300000002,115.8987069,5,19,+61 407 385 270,https://femalesover45fitness.com.au/,WA,AU
ChIJEwZEdtu7MioRMUkfOu90NQY,Anytime Fitness Victoria Park,"175 Albany Hwy, Victoria Park WA 6100, Australia",Victoria Park,-31.9704666,115.891983,3.2,69,+61 452 125 969,https://secure13.clubwise.com.au/victoriapark/guest_sale.asp,WA,AU
ChIJk_aqCx67MioRvLjoHkkfATs,Fitstop Victoria Park,"413 Albany Hwy, Victoria Park WA 6100, Australia",Victoria Park,-31.974870099999993,115.8973439,4.9,53,+61 493 366 100,https://fitstop.com/au/web/locations/au/Victoria%20Park,WA,AU
ChIJy0xMnP67MioRw0KRgXwkFBc,Hybrid House,"87 Canning Hwy, Victoria Park WA 6100, Australia",Victoria Park,-31.973618000000002,115.8827336,5,12,+61 468 031 356,,WA,AU
ChIJKwL-igy7MioRFAKg_tXHzWY,Snap Fitness Victoria Park 24/7,"919/923 Albany Hwy, East Victoria Park WA 6101, Australia",Victoria Park,-31.988295899999997,115.90529269999999,4.7,367,+61 402 833 399,https://www.snapfitness.com/au/gyms/victoria-park?utm_source=google&utm_medium=organic&utm_campaign=GMB,WA,AU
ChIJG0bkq3i7MioRkoy2VV6u8eY,Victoria Park Leisurelife Centre,"34 Kent St, East Victoria Park WA 6101, Australia",Victoria Park,-31.984105999999997,115.8993606,4.3,379,+61 8 9373 5450,https://www.victoriaparkleisure.wa.gov.au/,WA,AU
ChIJFTLIc4G7MioR4VO6fQlhdY4,Jetts Fitness Victoria Park,"Level 1/828 Albany Hwy, East Victoria Park WA 6101, Australia",Victoria Park,-31.984141299999994,115.90333220000001,4.4,96,+61 8 9472 3844,https://jetts.com.au/gym/jetts-victoria-park/,WA,AU
ChIJ3R-dVX-8MioRCJDTwmGGYII,BOLT Health and Fitness,"484 Albany Hwy, Victoria Park WA 6100, Australia",Victoria Park,-31.9764842,115.89869859999999,4.9,217,+61 447 615 000,https://www.boltfitness.com.au/,WA,AU
ChIJ2aRj8w2iMioRDtkyHTtGm5E,20FIT Victoria Park,"484 Albany Hwy, Victoria Park WA 6100, Australia",Victoria Park,-31.976561399999994,115.89860340000001,4.9,82,+61 483 878 597,http://20fit.com.au/,WA,AU
ChIJs3ntKg27MioR5SLt4Iiq-Oo,F45 Training Victoria Park,"3/115 Albany Hwy, Victoria Park WA 6100, Australia",Victoria Park,-31.969904699999997,115.89049530000001,4.9,50,+61 404 986 349,https://f45training.com/au/studio/victoriapark/,WA,AU
ChIJE-MtPwC7MioR-w9dL9rtgJc,Fitness Park,"107B Bank St, East Victoria Park WA 6101, Australia",Victoria Park,-31.983711199999995,115.91376269999999,,,,,WA,AU
ChIJK9n1qES7MioRyxdJyqg9l0w,RT Strength and Fitness,"396 Mill Point Rd, Victoria Park WA 6100, Australia",Victoria Park,-31.9739476,115.88245799999999,5,7,+61 448 147 232,http://www.rtstrength.com.au/,WA,AU
ChIJoyjszXe7MioRPQD2DrXSDxM,Bolt Athletic,"1/484 Albany Hwy, Victoria Park WA 6100, Australia",Victoria Park,-31.9764377,115.8986926,4.9,85,+61 427 039 443,http://skillathleticperth.com.au/,WA,AU
ChIJo8S0RNW7MioRZ296MSvLhUQ,Mindbody Lounge,"Level 1/484 Albany Hwy, Victoria Park WA 6100, Australia",Victoria Park,-31.9764377,115.8986926,4.7,26,+61 483 878 597,http://www.mindbodylounge.com.au/,WA,AU
ChIJdYztone8MioR5hEQSyLEg1k,Aqualife Centre,"42 Somerset St, East Victoria Park WA 6101, Australia",Victoria Park,-31.9878082,115.9129504,4.3,716,+61 8 9373 5400,https://www.victoriaparkleisure.wa.gov.au/,WA,AU
ChIJlf6ATXm7MioRaSmtErsJSQM,Studio Vita,"2 Mackie St, Victoria Park WA 6100, Australia",Victoria Park,-31.9719649,115.89434059999999,5,24,+61 468 011 033,http://www.studiovita.co/,WA,AU
ChIJ3-Squ6K7MioRfeiYXqX9pvg,Plus Fitness 24/7 Lathlain,"1 Francisco Pl, Lathlain WA 6100, Australia",Victoria Park,-31.9648341,115.9103876,4.2,104,+61 8 6146 6666,https://www.plusfitness.com.au/gyms/lathlain/,WA,AU
ChIJxZuc4WK8MioRexnvJOOQLd8,Arko Fitness by Stuart Bell,"Etwell St, East Victoria Park WA 6110, Australia",Victoria Park,-31.987613900000003,115.8902516,4.7,12,+61 499 812 597,http://www.arkofitness.com/,WA,AU
ChIJ05TuYYe9MioROqKL52YUPK8,Active Wellness Spa: East Vic Park,"1/207 Bank St, East Victoria Park WA 6101, Australia",Victoria Park,-31.990795300000002,115.9173189,4.9,84,,http://www.activewellnessspa.com/,WA,AU
ChIJ3fkpzXa8MioRMwyJiuPW3sw,Sagitta CrossFit - East Victoria Park,"Unit 7/5 Milford St, East Victoria Park WA 6101, Australia",Victoria Park,-31.990859200000003,115.9150975,4.8,93,+61 483 929 738,https://sagitta.com.au/,WA,AU
ChIJT_hSeeW7MioRIKYyxZZ83_8,Agility Rehabilitation,"Victoria Park Leisurelife Centre, 34 Kent St, East Victoria Park WA 6101, Australia",Victoria Park,-31.9842112,115.89939989999999,5,42,+61 8 6162 8145,https://www.agilityrehab.com.au/,WA,AU
ChIJodhXIfyvMioRYPiEzn_BHiM,Revo Fitness Balcatta,"39 Erindale Rd, Balcatta WA 6021, Australia",Balcatta,-31.8674213,115.80522090000001,4.4,74,,https://revofitness.com.au/gyms/balcatta/?utm_term=plcid_13082668278295189776&utm_source=google&utm_medium=organic&utm_campaign=Google+My+Business&utm_content=Revo+Fitness+Balcatta,WA,AU
ChIJObJ7psWvMioRiC2IlE5n7q8,Anytime Fitness,"223-225 Wanneroo Rd, Balcatta WA 6021, Australia",Balcatta,-31.8878618,115.83691599999999,4.1,188,+61 8 9344 1955,https://www.anytimefitness.com.au/,WA,AU
ChIJ3zyY1HSvMioRq1iqlGuK4d8,The Fit Co,"20 Abrams St, Balcatta WA 6021, Australia",Balcatta,-31.8622917,115.80475969999999,5,42,+61 451 984 038,http://thefitco.com.au/,WA,AU
ChIJZT9wXOavMioRHpKi2GSP4yc,Validus Fitness,"Unit 2/122 Erindale Rd, Balcatta WA 6021, Australia",Balcatta,-31.859116699999998,115.8106865,5,42,+61 414 551 222,http://teamvalidus.com.au/,WA,AU
ChIJu0LhutmvMioRsW52cI8VqH8,INSPIR3D CULTURE,"11 Whipple St, Balcatta WA 6021, Australia",Balcatta,-31.862491,115.80785639999998,5,58,+61 449 797 208,http://www.inspir3dculture.com/,WA,AU
ChIJq6qao8WvMioRKrEu6B2eLGI,Prime Bodies,"223 Wanneroo Rd, Balcatta WA 6021, Australia",Balcatta,-31.887855099999996,115.83690409999998,5,42,+61 424 297 641,https://www.primebodies.com.au/,WA,AU
ChIJGSUodL-vMioRu1hqNYGWCDQ,PWR Fitness Pty Ltd,"3/7 Abrams St, Balcatta WA 6021, Australia",Balcatta,-31.8644886,115.80596159999999,5,10,+61 407 722 270,http://www.pwrfitness.com.au/,WA,AU
ChIJEwqtbW6vMioRcbInEkNgUpI,RITUAL FITNESS,"5/2 Gibberd Rd, Balcatta WA 6021, Australia",Balcatta,-31.864979499999997,115.8087114,5,36,+61 415 202 760,http://ritual-fitness.com.au/,WA,AU
ChIJy2yULLuvMioRPiwfeH4fJPc,The Rev Barbell Club,"5/146 Balcatta Rd, Balcatta WA 6021, Australia",Balcatta,-31.860494599999996,115.805458,4.7,54,,http://www.revbbc.com.au/,WA,AU
ChIJl8fJx2CuMioRN_SYSmZAXw4,Legion Strength and Conditioning,"Unit 2/9 Kirke St, Balcatta WA 6021, Australia",Balcatta,-31.860175,115.82451839999999,5,78,+61 485 874 497,,WA,AU
ChIJL9MDyl2uMioRxB8zCdxTxLo,FLOW PERFORMANCE,"14 Cressall Rd, Balcatta WA 6021, Australia",Balcatta,-31.861918099999997,115.81203500000001,5,140,+61 466 811 193,http://www.flowperformance.com.au/,WA,AU
ChIJkeLV5oavMioRh5y9U2XyyYA,Combine Air Balcatta,"11/30 Erindale Rd, Balcatta WA 6021, Australia",Balcatta,-31.866661699999998,115.80448,5,34,+61 448 006 173,https://combineairbalcatta.trialus.com.au/,WA,AU
ChIJ92-Go8WvMioRFVNAM0kxjOw,Grounded Fitness,"Ground Floor/223 Wanneroo Rd, Balcatta WA 6021, Australia",Balcatta,-31.887880499999998,115.8368955,5,9,+61 466 578 484,,WA,AU
ChIJLUCErvmvMioRoNMDcxj9ul4,inLIFE Wellness Balcatta,"7b/30 Erindale Rd, Balcatta WA 6021, Australia",Balcatta,-31.866661699999998,115.80448,4.5,17,+61 410 750 188,https://www.inlifewellness.com.au/balcatta,WA,AU
ChIJCf2g4TOvMioRbbGvfvxqAwM,Land Performance Centre,"4/17 Halley Rd, Balcatta WA 6021, Australia",Balcatta,-31.8609065,115.82537020000001,5,38,+61 460 633 322,https://www.landperformancecentre.com/,WA,AU
ChIJgT_lNWyvMioRrMeG0UW2O7U,Motion Cove,"4/58 Erindale Rd, Balcatta WA 6018, Australia",Balcatta,-31.865010599999998,115.80733029999999,5,4,,https://www.motioncove.com.au/,WA,AU
ChIJKd63oQivMioR8v4nnRle_p8,Skull Gym,"9C Framfield Way, Balga WA 6061, Australia",Balcatta,-31.860341899999995,115.8385269,5,71,+61 420 652 808,https://www.skullgym.com.au/,WA,AU
ChIJZ6EPv1-uMioRDY-6QPL8fI4,Northern Districts Gymnastic Club,"5 Whipple St, Balcatta WA 6021, Australia",Balcatta,-31.862377,115.80646979999999,4.2,36,+61 8 9240 6861,http://www.ndgc.org.au/,WA,AU
ChIJyVWfZbWvMioRMRsd44q1l5c,ACROFIT,"6 Kirke St, Balcatta WA 6021, Australia",Balcatta,-31.860564,115.82317520000001,5,13,+61 456 362 111,http://acrofit.com.au/,WA,AU
ChIJBb8vbAyvMioR_HN0_I0Apvs,Goodlife Health Clubs Innaloo,"384 Scarborough Beach Rd, Innaloo WA 6018, Australia",Innaloo,-31.9015232,115.7978771,3.5,302,+61 8 6364 4200,https://www.goodlife.com.au/clubs/innaloo/?utm_source=gbp&utm_medium=organic&utm_campaign=GL%20-%20AO%20-%20GBP%20-%20GOO%20-%20AU&utm_content=Goodlife%20Health%20Clubs%20Innaloo&utm_term=plcid_16625208345352897694,WA,AU
ChIJ66flMYevMioRMiyrY9q2x_k,Fitstop Innaloo,"369 Scarborough Beach Rd, Innaloo WA 6018, Australia",Innaloo,-31.902713899999995,115.7959317,5,21,+61 411 125 149,https://fitstop.com/au/web/locations/au/Innaloo,WA,AU
ChIJY7sptw2vMioRXv2nBWqRfLQ,Club Pilates Innaloo,"21/29 Ellen Stirling Blvd, Innaloo WA 6018, Australia",Innaloo,-31.899680699999998,115.8026249,4.5,42,+61 466 644 442,https://www.clubpilates.com.au/innaloo/,WA,AU
ChIJ64Dz9wyvMioRujeWkx7Hmss,Active Women's Fitness,"369 Scarborough Beach Rd, Innaloo WA 6018, Australia",Innaloo,-31.902713899999995,115.7959317,4.8,11,+61 428 717 555,http://www.activebodyfitness.com.au/,WA,AU
ChIJ1-AaRAOvMioR8QIgS67XJQc,Goodlife Health Clubs Karrinyup,"200 Karrinyup Rd, Karrinyup WA 6018, Australia",Karrinyup,-31.8766319,115.7770979,4.1,280,+61 8 6167 7350,https://www.goodlife.com.au/clubs/karrinyup/?utm_source=gbp&utm_medium=organic&utm_campaign=GL%20-%20AO%20-%20GBP%20-%20GOO%20-%20AU&utm_content=Goodlife%20Health%20Clubs%20Karrinyup&utm_term=plcid_993158494157242870,WA,AU
ChIJcwCBwCOvMioR6sAaUsKY2Yg,Fitstop Karrinyup,"200 Karrinyup Rd, Karrinyup WA 6018, Australia",Karrinyup,-31.8777345,115.77883659999999,5,30,+61 489 072 455,https://fitstop.com/au/web/locations/au/Karrinyup,WA,AU
ChIJH8oV_eCvMioRj_SoZ7QZ_5I,SpeedFit Karrinyup,"SP0005/200 Karrinyup Rd, Karrinyup WA 6018, Australia",Karrinyup,-31.876337799999998,115.7786431,4.9,65,+61 8 9289 6523,https://joinspeedfit.com/location/karrinyup-wa/,WA,AU
ChIJoT6HYs2vMioRYFt5LDZuunU,LaBelle Bodywerks,"395 Karrinyup Rd, Karrinyup WA 6018, Australia",Karrinyup,-31.882582900000003,115.78635369999999,5,28,+61 419 231 653,http://www.labellebodywerks.com.au/,WA,AU
ChIJ53S1j72vMioR99u1R5Mecs0,Cycle Co. Spin Studio,"Karrinyup Shopping Centre, Shop L01 1277C/200 Karrinyup Rd, Karrinyup WA 6018, Australia",Karrinyup,-31.877488699999997,115.7770037,5,26,+61 455 576 059,https://www.cycleco.com.au/,WA,AU
ChIJy7pf9CWvMioRRkdTQu4lzMs,Afterglo Pilates,"SP1282 Karrinyup Shopping Centre, Karrinyup WA 6018, Australia",Karrinyup,-31.8773518,115.7781176,4.9,46,,https://www.afterglopilates.com/,WA,AU
ChIJVfQtKBuvMioRSjYig9X4Cc8,Athletica Strength & Conditioning,"Located within Goodlife Health Clubs, Shop MJ1271/200 Karrinyup Rd, Karrinyup WA 6018, Australia",Karrinyup,-31.876680900000004,115.77751810000001,5,7,,https://www.athleticasc.com.au/?utm_source=google&utm_medium=wix_google_business_profile&utm_campaign=4102408843716759358,WA,AU
ChIJ0wKSLiqvMioR0osKwYxb0nY,Jetts Scarborough,"60 Scarborough Beach Rd, Scarborough WA 6019, Australia",Karrinyup,-31.8938965,115.76293090000001,4.9,122,+61 8 6255 8618,https://jetts.com.au/gym/jetts-scarborough/,WA,AU
ChIJcYaZImivMioRNVrS87P-QoY,The 6 Figure PT Club,"200 Karrinyup Rd, Karrinyup WA 6018, Australia",Karrinyup,-31.8769194,115.77896579999998,5,1,+61 414 893 170,http://the6figureptclub.com/,WA,AU
ChIJQ0u8E2u0MioRYdy_VD_PgFQ,24/7 Ellenbrook Fitness Centre,"2/42 Main St, Ellenbrook WA 6069, Australia",Ellenbrook,-31.782473000000003,115.9657715,4.6,157,+61 8 6296 3394,https://www.ellenbrookfitness.com.au/,WA,AU
ChIJBcxW0w-1MioRpW27rbBhTac,Revo Fitness - Ellenbrook,"186 The Promenade, Ellenbrook WA 6069, Australia",Ellenbrook,-31.77406,115.96001639999999,4.1,67,+61 1300 738 638,https://revofitness.com.au/gyms/ellenbrook/?utm_term=plcid_11071451144471491479&utm_source=google&utm_medium=organic&utm_campaign=Google+My+Business&utm_content=Revo+Fitness+-+Ellenbrook,WA,AU
ChIJ-5wCGmq1MioRMSswOW0m40w,ChasingBetter247 Health & Fitness Gym Ellenbrook,"151 The Promenade, Ellenbrook WA 6069, Australia",Ellenbrook,-31.7789564,115.96498129999998,4.7,216,+61 477 086 086,https://www.chasingbetter247.com.au/?utm_source=GMB&utm_medium=gmb,WA,AU
ChIJNX6P3zy0MioR47CRI0ZVHog,Plus Fitness 24/7 Ellenbrook,"20 Sunray Cir, Ellenbrook WA 6069, Australia",Ellenbrook,-31.7911805,115.97282749999998,4.6,160,+61 8 6296 7666,https://www.plusfitness.com.au/gyms/ellenbrook/,WA,AU
ChIJ9y7dKpK1MioRDY0BurR3wDs,Fitstop Ellenbrook,"SHOP 33/11 Main St, Ellenbrook WA 6069, Australia",Ellenbrook,-31.782451,115.96968299999997,4.9,45,+61 451 146 069,http://www.fitstop.com/ellenbrook,WA,AU
ChIJNyT6PRG1MioRk1LKJ0ZkGbE,Platinum Fitness Aveley,"Unit 7/209 Holdsworth Ave, Ellenbrook WA 6069, Australia",Ellenbrook,-31.766226300000003,115.9860389,4.9,27,+61 432 548 674,https://www.platinumfitnesswa.com.au/,WA,AU
ChIJbf1yRJe1MioRlRkRviAnJF4,Ignite30 Ellenbrook,"44 Ellen Stirling Parade, Ellenbrook WA 6069, Australia",Ellenbrook,-31.7806206,115.96563799999998,5,92,+61 483 918 565,http://ignite30.com.au/,WA,AU
ChIJczh1QIO1MioRu74NANbiQ38,Union Ellenbrook - CrossFit & HYROX,"24 Comserv Loop, Ellenbrook WA 6069, Australia",Ellenbrook,-31.7772946,115.9680532,5,135,+61 481 608 778,http://www.unionellenbrook.com.au/,WA,AU
ChIJwzreJ2q0MioRp9lKjBx-EOw,Arachnid Gym,"205 Holdsworth Ave, Ellenbrook WA 6069, Australia",Ellenbrook,-31.766477899999998,115.98592149999998,5,29,+61 400 084 505,http://arachnidgym.com.au/,WA,AU
ChIJQbeo_Wq0MioR2mPKl0yyrAQ,Jetts Aveley,"31 Egerton Dr, Aveley WA 6069, Australia",Ellenbrook,-31.7924447,115.98815309999998,4.7,169,+61 8 6296 7042,https://jetts.com.au/gym/jetts-aveley/,WA,AU
ChIJ_ykKRzi1MioRRUjjEhfMamc,Elite Supplements Ellenbrook,"Shop G093, Ellenbrook Central, Ellenbrook WA 6069, Australia",Ellenbrook,-31.782906899999997,115.96918649999999,4.9,437,+61 8 6120 0011,https://www.elitesupps.com.au/?utm_source=google&utm_medium=organic&utm_campaign=Google%20My%20Business&utm_content=Elite%20Supplements%20Ellenbrook%20-%20Ellenbrook&utm_term=plcid_12454651515672488655,WA,AU
ChIJVbuyYqm3MioRDsA53WMcc-Y,XO FIT 24/7 BRABHAM 2.0,"2 Marvel Entrance, Brabham WA 6055, Australia",Ellenbrook,-31.832454600000002,115.96966270000001,4.4,173,+61 1300 963 487,http://www.xofit.com.au/,WA,AU
ChIJ6_PTIGq0MioR1spzk6j8Ty8,F45 Training Ellenbrook,"3/23 The Broadway, Ellenbrook WA 6069, Australia",Ellenbrook,-31.7780098,115.96860300000002,4.9,31,+61 435 402 347,https://f45training.com.au/ellenbrook/,WA,AU
ChIJS7C6KHK1MioRYr62znmdHZo,Reset Movement,"38 Ellen Stirling Parade, Ellenbrook WA 6069, Australia",Ellenbrook,-31.7807625,115.9657963,5,32,+61 423 237 808,http://www.resetmovement.com.au/,WA,AU
ChIJKSOcrSC1MioR_HBJ1IIJ_jY,Airborne Circus and Fitness,"4/10 Comserv Loop, Ellenbrook WA 6069, Australia",Ellenbrook,-31.778230200000003,115.96827520000001,5,6,+61 432 759 933,https://www.airbornecircusfitness.com.au/,WA,AU
ChIJ4zY4wqy1MioRcrVlADZbtNU,Bri-Fit,"27 Maffina Parade, Ellenbrook WA 6069, Australia",Ellenbrook,-31.766501199999997,115.99069019999999,5,1,+61 432 879 271,http://www.bri-fit.com.au/,WA,AU
ChIJAbrMwla1MioR02a78b8rUSE,Ellenbrook Pilates,"2/150 Coolamon Blvd, Ellenbrook WA 6069, Australia",Ellenbrook,-31.7713274,115.96975739999999,5,2,+61 8 9297 1188,http://ellenbrookpilates.com.au/,WA,AU
ChIJv1NlI2q0MioR9A24IpUGQ2M,Infused CrossFit,"1/33 The Broadway, Ellenbrook WA 6069, Australia",Ellenbrook,-31.777313,115.96843870000001,4.9,33,+61 478 636 466,https://www.infusedcrossfit.com.au/,WA,AU
ChIJO7dzFPq5MioRm1I9_9KGT8o,Jetts Bassendean,"Shop/33 West Rd, Bassendean WA 6054, Australia",Bassendean,-31.9040152,115.95378629999999,4.7,216,+61 8 6278 2799,https://jetts.com.au/gym/jetts-bassendean/,WA,AU
ChIJfSDII2O5MioR-IC1-S6HVdo,Fitness Revolution,"4/6 Purser Loop, Bassendean WA 6054, Australia",Bassendean,-31.907666199999998,115.93361469999999,5,109,+61 417 912 943,https://fitness-revolution.com.au/#contact/,WA,AU
ChIJfYRHg_q5MioRLWhEVhPFa7w,Bike Fit Perth - Livefit Australia,"Steel Blue Oval, Second Building from River End, 140 Old Perth Rd, Bassendean WA 6054, Australia",Bassendean,-31.902472299999996,115.9574289,5,54,+61 421 811 938,https://livefitaustralia.com/,WA,AU
ChIJmaF2v465MioRoPqdlZen-xM,Republic Gym,"73 Old Perth Rd, Bassendean WA 6054, Australia",Bassendean,-31.905281,115.95175809999999,,,,https://www.republicgym.com.au/,WA,AU
ChIJk5y-p_C5MioR-H6V3gxeNys,F45 Training Bassendean,"Shop 31, West Road, Bassendean Shopping Centre, Bassendean WA 6054, Australia",Bassendean,-31.9034863,115.9539729,5,44,+61 426 260 901,http://www.f45training.com.au/bassendean,WA,AU
ChIJw8_BlmS5MioR28D6pq_0Xjw,Fitness Next,"140 Old Perth Rd, Bassendean WA 6054, Australia",Bassendean,-31.902365,115.95649909999999,5,8,+61 423 091 615,https://www.facebook.com/FitnessNextAU,WA,AU
ChIJ-Xkcnxm6MioR4j-Q2TWsiNU,Reside in Movement,"Ashfield Reserve, Ashfield WA 6054, Australia",Bassendean,-31.9128244,115.9375959,5,27,+61 472 628 045,http://www.resideinmovement.com.au/,WA,AU
ChIJuS9nU0C6MioR1wnJw16wO5U,Snap Fitness 24/7 Bayswater,"497 Guildford Rd, Bayswater WA 6053, Australia",Bassendean,-31.923496800000002,115.91987479999999,4.8,292,+61 402 146 464,https://www.snapfitness.com/au/gyms/bayswater?utm_source=gmb&utm_medium=yext,WA,AU
ChIJzXW2wQS6MioRCyf4_s8q7Ik,GymCare,"21 McDonald Cres, Bassendean WA 6054, Australia",Bassendean,-31.905127800000002,115.93932629999999,5,8,+61 8 9379 1888,http://www.gymcare.com.au/,WA,AU
ChIJ4RrJP8-5MioRVFpiwcQtg5A,Best Body Pilates - Bassendean,"Shop 17 Hawaiian's Bassendean Corner of West &, Old Perth Rd, Bassendean WA 6054, Australia",Bassendean,-31.903983999999998,115.95352319999999,5,121,+61 1300 431 299,https://join.bestbody.com.au/bassendean,WA,AU
ChIJKeHPNxm6MioRgDqGcOkV-jg,Cyril Jackson Recreation Centre,"53 Reid St, Bassendean WA 6054, Australia",Bassendean,-31.912811200000004,115.94024650000001,4.3,64,+61 8 9379 5122,,WA,AU
ChIJBf2aLXy7MioRe8KYxKTU_BI,The Motion Academy - Motion Parkour - BASSENDEAN,"2/19 Purser Loop, Bassendean WA 6054, Australia",Bassendean,-31.908372,115.9332984,4.8,42,+61 7678643124,https://www.themotionacademy.com.au/,WA,AU
ChIJeddTOHa5MioR2nlXbwHnYJk,Brad Brown,"8 Watson St, Bassendean WA 6054, Australia",Bassendean,-31.911274400000003,115.95652860000001,5,2,+61 411 771 756,https://www.ragefitness.com.au/,WA,AU
ChIJpZChSyy6MioRKYZ3LvKaRF4,Snap Fitness Redcliffe WA 24/7,"5/351 Great Eastern Hwy, Redcliffe WA 6104, Australia",Bassendean,-31.9346753,115.9382782,4.7,205,+61 432 539 557,https://www.snapfitness.com/au/gyms/redcliffe-perth,WA,AU
ChIJ5cgfAfy7MioRdZb5yXlp0Ts,Life Fitness Australia,"21 McDonald Cres, Bassendean WA 6054, Australia",Bassendean,-31.9053623,115.93924679999999,,,+61 8 9379 1888,http://www.lifefitness.com.au/,WA,AU
ChIJuRbYwFu5MioR7KSn6LRPCjY,Integrative Performance,"Livefit Australia Gym, Bassendean WA 6054, Australia",Bassendean,-31.902545200000002,115.95682809999998,,,+61 449 639 448,https://www.integrativeperformance.com.au/?utm_source=google&utm_medium=wix_google_business_profile&utm_campaign=1329986815282959909,WA,AU
ChIJcytl6kq7MioR9lgt4xZYxLA,D.C Combat,"34 Munt St, Bayswater WA 6053, Australia",Bayswater,-31.912166600000003,115.919109,5,21,+61 420 621 460,http://www.dccombat.com.au/,WA,AU
ChIJNxFyQwC7MioRZMWKASCsSdg,Next Level Performance S&C,"36 Radius Lp, Bayswater WA 6053, Australia",Bayswater,-31.9138331,115.9275935,5,14,,http://nlpsc.com/,WA,AU
ChIJSXMs1vW7MioRykc1RxOVREA,BioWeapon Performance Centre,"Unit 7/6 Radius Lp, Bayswater WA 6053, Australia",Bayswater,-31.9144045,115.9269856,4.9,36,+61 424 488 505,http://www.bioweaponperformance.com.au/,WA,AU
ChIJpST24Wq6MioRdJrJEshN4Sc,Panoramic Vitality & Performance,"1/7 Durham Rd, Bayswater WA 6053, Australia",Bayswater,-31.918298399999998,115.92130180000001,5,7,,http://panoramicvp.com.au/,WA,AU
ChIJ4Qw0jny6MioRTznOkuAephQ,Say Yes Fitness,"Houghton Park Clubrooms, Purley St, Bayswater WA 6053, Australia",Bayswater,-31.898140999999995,115.9253646,5,66,+61 411 861 701,https://sayyesfitness.com.au/,WA,AU
ChIJDemKF_S6MioR_g86yuJrzDI,The RISE,"28 Eighth Ave, Maylands WA 6051, Australia",Bayswater,-31.9310445,115.89485710000001,4.4,673,+61 8 9208 2400,https://bayswaterrecreation.com.au/rise?utm_source=google&utm_medium=organic&utm_campaign=gmb,WA,AU
ChIJ9TOdqGO7MioRuU7gh_BCnGA,Studio Seven Recovery,"U7/25 Wicks St, Bayswater WA 6053, Australia",Bayswater,-31.9142293,115.9278362,5,18,,https://www.studiosevenrecovery.com.au/,WA,AU
ChIJ1_r3ORa6MioRIXbkRhAZzD4,Try Fit,"Bayswater WA 6053, Australia",Bayswater,-31.9177315,115.93122899999999,,,,,WA,AU
ChIJuS9nU0C6MioRzrDnKyE91sc,HBF Physio Bayswater,"Shop 1/497 Guildford Rd, Bayswater WA 6053, Australia",Bayswater,-31.923569699999998,115.9198007,5,217,+61 8 6313 4040,https://www.hbfphysio.com.au/clinic/bayswater/,WA,AU
ChIJdWtrLZ6wMioRNEAcU-N6-u4,Star-Mites Gymnastics,"3/169 Beechboro Rd S, Bayswater WA 6053, Australia",Bayswater,-31.899531299999996,115.9200552,4.5,35,+61 8 9276 5028,https://www.starmites.com.au/,WA,AU
ChIJcdQ1IL2xMioRBdedUdjJAIU,Pawsitive Core - Pilates with Puppy Play,"91 Whatley Cres, Bayswater WA 6053, Australia",Bayswater,-31.9189334,115.91157500000001,5,5,+61 476 243 904,https://www.pawsitivecore.com.au/,WA,AU
ChIJhf5XrVm6MioRGZ76-KGh8vs,Body 2 Soul Fitness,"5/43 Caledonian Ave, Maylands WA 6051, Australia",Bayswater,-31.933713999999995,115.90259409999999,5,3,+61 8 9272 6655,http://body2soulfitness.com/24hr-gym-memberships/,WA,AU
ChIJCSnSb7i7MioRA91zfOjAP5M,Chamber Fitness,"10/53 Belmont Ave, Belmont WA 6104, Australia",Belmont,-31.955316800000002,115.92254390000001,5,84,,https://chamberfitness.com.au/,WA,AU
ChIJe1aDEEK7MioR5o0gpSSMgts,Fitstop Belmont,"268 Belmont Ave, Belmont WA 6105, Australia",Belmont,-31.967179199999993,115.93463399999999,4.8,52,+61 415 404 817,https://fitstop.com/au/web/locations/au/Belmont,WA,AU
ChIJdXaIE--7MioRIhIqDbJPhmM,Ora 24/7 Gym Belmont,"96 Belmont Ave, Belmont WA 6104, Australia",Belmont,-31.958835299999997,115.92468049999998,4.9,126,+61 411 341 889,http://www.orasportsfitness.com.au/,WA,AU
ChIJU46d7cO7MioR6X6OzGFbHuw,Genesis Health and Fitness Belmont,"1&2/199 Abernethy Rd, Belmont WA 6104, Australia",Belmont,-31.9563426,115.92991629999999,4.9,236,+61 8 9477 6824,https://www.genesisfitness.com.au/gym/wa/belmont?utm_source=google&utm_medium=organic&utm_campaign=gmb&utm_content=belmont,WA,AU
ChIJqfAyRwm7MioRWfyOqykrf9U,Revo Fitness - Belmont,"227 Belmont Ave, Cloverdale WA 6105, Australia",Belmont,-31.9652514,115.9335862,3.8,229,+61 1300 738 638,https://revofitness.com.au/gyms/belmont/?utm_term=plcid_16628276077141989227&utm_source=google&utm_medium=organic&utm_campaign=Google+My+Business&utm_content=Revo+Fitness+-+Belmont+-+Cloverdale,WA,AU
ChIJu9QMM7e7MioR4qPUz2_U5IY,Anytime Fitness - Belmont,"Unit 1, 268 Belmont Avenue Cnr Belmont Ave &, Fulham St, Belmont WA 6104, Australia",Belmont,-31.967024,115.93452989999999,3.9,106,+61 418 988 020,https://www.anytimefitness.com.au/gyms/au-1288/belmont-wa-6984/,WA,AU
ChIJO9zSyPO7MioRVDi-k4DO2-o,Fitra Fitness,"Lot 5/222-226 Belmont Ave, Cloverdale WA 6105, Australia",Belmont,-31.966161,115.932684,5,24,+61 448 313 144,http://fitrafitness.com/,WA,AU
ChIJNw0vacK7MioREh2cXRYvN6c,Belmont Oasis Leisure Centre,"Progress Way, Belmont WA 6104, Australia",Belmont,-31.960246199999997,115.9313455,4,661,+61 8 9277 1622,https://www.belmontoasis.com.au/?utm_source=local&utm_medium=organic&utm_campaign=gmb,WA,AU
ChIJi1Bg7MG7MioRWBV4LABxErQ,Elevate Training Lab,"4/153 Belmont Ave, Belmont WA 6104, Australia",Belmont,-31.960634,115.9280767,5,22,+61 416 924 715,http://elevatelab.com.au/,WA,AU
ChIJOW61VhC7MioRDvNZLgVCQb4,Baseline Fitness,"unit 2/327 Abernethy Rd, Cloverdale WA 6105, Australia",Belmont,-31.9636726,115.9382234,5,11,+61 493 485 904,http://www.baseline-fitness.com.au/,WA,AU
ChIJAQBA8sO7MioRKs0Vv8ZTfpQ,Coaching Zone Belmont,"1/199 Abernethy Rd, Belmont WA 6104, Australia",Belmont,-31.956459899999995,115.92974909999998,5,1,+61 8 9477 6824,https://www.genesisfitness.com.au/coachingzone?utm_medium=organic&utm_source=gmb&utm_campaign=belmont%20,WA,AU
ChIJGXJ-i027MioRvGZnsWXur1U,Body Agility - Belmont Gym,"Unit 1&2/199 Abernethy Rd, Belmont WA 6104, Australia",Belmont,-31.956613500000003,115.9302616,,,+61 8 6373 5063,http://www.bodyagility.com.au/,WA,AU
ChIJRUgmLl27MioRl7s1bSsMLR0,BlueFit Swimming - Belmont,"Progress Way, Belmont WA 6104, Australia",Belmont,-31.959950199999998,115.93124669999999,4.4,13,+61 3 0025 2583,https://bluefitswimming.com.au/belmont/,WA,AU
ChIJdfvSsoWXMioRJy0y-pqTtws,World Gym Canning Vale,"1 Wilfred Rd, Canning Vale WA 6155, Australia",Canning Vale,-32.0824356,115.90875579999998,4,337,+61 8 6285 1813,https://www.worldgym.com.au/gyms/canning-vale?utm_source=organic&utm_medium=gmb&utm_id=google,WA,AU
ChIJpy1CKF6XMioR_cxlMptAPvI,Revo Fitness - Canning Vale,"888 Nicholson Rd, Canning Vale WA 6155, Australia",Canning Vale,-32.09036,115.9185138,4,252,+61 1300 738 638,https://revofitness.com.au/gyms/canning-vale/?utm_term=plcid_11512707212741914352&utm_source=google&utm_medium=organic&utm_campaign=Google+My+Business&utm_content=Revo+Fitness+-+Canning+Vale,WA,AU
ChIJEZp8XXSWMioR3a3_MUuvIBg,Roar Active Canning Vale,"280 Amherst Rd, Canning Vale WA 6155, Australia",Canning Vale,-32.0888023,115.9425582,4.5,332,+61 8 9456 2266,https://roar.com.au/?utm_source=google&utm_medium=organic&utm_campaign=Google+My+Business&utm_content=Roar+Active+Canning+Vale&utm_term=plcid_2256277040995617934,WA,AU
ChIJGehvIfa9MioR4qHMWiNVQVM,Anytime Fitness Canning Vale,"6/5 Hughes St, Canning Vale WA 6155, Australia",Canning Vale,-32.0670916,115.9315816,4.2,139,+61 8 6253 8446,https://www.anytimefitness.com.au/gyms/au-1153/canning-vale-wa-6155/,WA,AU
ChIJOW_l2baXMioRaRe3N5HDDDU,BFT Canning Vale,"410 Ranford Rd, Canning Vale WA 6155, Australia",Canning Vale,-32.0910362,115.9193166,4.8,63,+61 423 920 930,https://bodyfittraining.au/club/CanningVale?utm_source=extnet&utm_medium=search&utm_campaign=franchise_lead_gen,WA,AU
ChIJ5QBKxfe9MioRY2dFUNUJh9I,Snap Fitness 24/7 Canning Vale,"3/459 Nicholson Rd, Canning Vale WA 6155, Australia",Canning Vale,-32.0631637,115.9357862,4.8,280,+61 411 275 701,https://www.snapfitness.com/au/gyms/canning-vale?utm_source=gmb&utm_medium=yext,WA,AU
ChIJ7zAnk_e9MioRu4mXtcXQBF8,Jetts Canning Vale,"Unit 4/489 Nicholson Rd, Canning Vale WA 6155, Australia",Canning Vale,-32.0649688,115.9344017,4.6,64,+61 8 6254 2111,https://join.jetts.com.au/join?branchId=66ce82f8dceaa548d000f3ce,WA,AU
ChIJ3XqM6ci9MioRgq6vvBxnPv4,Fitstop Canning Vale,"499 Nicholson Rd, Canning Vale WA 6155, Australia",Canning Vale,-32.0659904,115.93280239999999,4.8,11,+61 450 656 155,https://fitstop.com/au/web/locations/au/Canning%20Vale,WA,AU
ChIJ5fVvnUCWMioR-tchwpGvwQc,Flex Fitness Equipment - Canning Vale,"2/404 Ranford Rd, Canning Vale WA 6155, Australia",Canning Vale,-32.090814,115.91931240000001,4.8,217,+61 8 9456 2231,http://www.flexequipment.com.au/?utm_source=google&utm_medium=organic&utm_campaign=gmb_canningvale,WA,AU
ChIJTUVkLva9MioR9wxa62i1UCk,Synergy Gym,"Unit 8 6/2 Tulloch Way, Canning Vale WA 6155, Australia",Canning Vale,-32.066316799999996,115.9315696,4.9,75,+61 483 941 793,https://synergygym.com.au/,WA,AU
ChIJgR7lpSKUMioRvIgfGXdZ88E,Jetts Canning Vale South,"1/404 Ranford Rd, Canning Vale WA 6155, Australia",Canning Vale,-32.0908863,115.919397,4.8,268,+61 8 9456 0102,https://jetts.com.au/gym/jetts-canning-vale-south/,WA,AU
ChIJn3zujn2WMioRwUOsetb6YmA,Genesis Bailey Fitness,"Unit 7/714 Ranford Rd, Southern River WA 6110, Australia",Canning Vale,-32.107174199999996,115.93899129999998,4,268,+61 8 9394 0700,https://www.baileyfitness.com.au/gyms/southern-river/?utm_source=google&utm_medium=local&utm_campaign=gmb_listing,WA,AU
ChIJm3qlHPOXMioRBiYaXDNnK-8,SpeedFit Canning Vale,"10/2 Batman Rd, Canning Vale WA 6155, Australia",Canning Vale,-32.088909,115.943407,4.9,38,+61 485 002 260,https://joinspeedfit.com/location/canning-vale-wa/,WA,AU
ChIJJUS2YA69MioR16lcDLioLyw,inLIFE Wellness Canning Vale,"Unit 4/280 Bannister Rd, Canning Vale WA 6155, Australia",Canning Vale,-32.071737,115.893753,5,14,+61 473 321 322,https://www.inlifewellness.com.au/canning-vale,WA,AU
ChIJPQmgb9mXMioRdQ2Tv1QJdlk,Sista Fitness 24/7 Harrisdale,"737 Ranford Rd, Harrisdale WA 6112, Australia",Canning Vale,-32.108473599999996,115.9391426,4.3,56,+61 8 6311 5544,http://sistafitness.com.au/,WA,AU
ChIJX8UJiASXMioRzcZ2AbMciEk,The Emerge Method,"280 Amherst Rd, Canning Vale WA 6155, Australia",Canning Vale,-32.0887774,115.94254480000001,5,2,+61 484 247 463,https://theemergemethod.wixsite.com/emerge,WA,AU
ChIJsY60RH2WMioRTXUvhCmmPTU,Anytime Fitness,"Unit 2/20 Wright Rd, Harrisdale WA 6112, Australia",Canning Vale,-32.1080665,115.9361495,4,84,+61 401 278 037,https://www.anytimefitness.com.au/gyms/au-1440/harrisdale-wa-6112/,WA,AU
ChIJT39d6Ku9MioRZU6-JgntNjs,Gracie Barra Canning Vale,"1/176 Bannister Rd, Canning Vale WA 6155, Australia",Canning Vale,-32.0595352,115.90904700000002,5,12,+61 461 288 487,https://graciebarra.com/oceania/canning-vale/,WA,AU
ChIJZwg3Qn6XMioRPG7hGwGGRzY,Step into Life Canning Vale,"Canning Vale Oval, Eucalyptus Blvd,, Canning Vale WA 6155, Australia",Canning Vale,-32.077484,115.913916,5,2,+61 448 547 993,,WA,AU
ChIJc_l89My9MioRhdphU76HnsE,Moraes BJJ Academy,"Unit 2/36 Tacoma Cct, Canning Vale WA 6155, Australia",Canning Vale,-32.0624944,115.91530580000001,5,12,+61 414 763 517,https://www.instagram.com/moraesbjj_gym/,WA,AU
ChIJ3xnM2Y2XMioR0WtQt8Q37m4,LTYB Southern River,"10/712 Ranford Rd, Southern River WA 6110, Australia",Canning Vale,-32.1042577,115.9358009,5,10,+61 436 352 218,https://www.listentoyourbody.com.au/studio/listen-to-your-body-southern-river,WA,AU
ChIJ0a-bueWXMioRQM-Qxs-kaY0,RFX Athletic,"280 Amherst Rd, Canning Vale WA 6155, Australia",Canning Vale,-32.0887774,115.94254480000001,5,2,+61 8 9456 2266,https://rfxathletic.com.au/?utm_campaign=GMB_RFX_Canning_Vale&utm_source=GMB_RFX_Canning_Vale,WA,AU
ChIJTUVkLva9MioRT42-9fQ-nA4,CrossFit The Shack,"unit 12/2/6 Tulloch Way, Canning Vale WA 6155, Australia",Canning Vale,-32.0662349,115.9310182,5,66,+61 426 233 151,http://www.crossfittheshack.com.au/,WA,AU
ChIJ9b3ToHeXMioRKbM9h5CEY2U,Roar Active Cockburn,"9/49 Armadale Rd, Cockburn Central WA 6164, Australia",Cockburn,-32.1262474,115.86689750000001,4.8,734,+61 8 9468 7778,https://roar.com.au/?utm_source=google&utm_medium=organic&utm_campaign=Google+My+Business&utm_content=Roar+Active+Cockburn+-+Cockburn+Central&utm_term=plcid_6245919357972235049,WA,AU
ChIJ52p3hTSZMioRSUGFGS6h3gE,Revo Fitness - Cockburn,"4/660 Beeliar Dr, Cockburn Central WA 6164, Australia",Cockburn,-32.1267272,115.84014250000001,4.4,157,+61 1300 738 638,https://revofitness.com.au/gyms/cockburn/?utm_term=plcid_5211141285818954196&utm_source=google&utm_medium=organic&utm_campaign=Google+My+Business&utm_content=Revo+Fitness+-+Cockburn+-+Cockburn+Central,WA,AU
ChIJr7LjMTCYMioR0Mlox4trXwQ,Round 1 Fitness,"U1/22 Hammond Rd, Cockburn Central WA 6164, Australia",Cockburn,-32.121075,115.839595,4.9,129,+61 8 9414 1141,http://round1fitness.com.au/,WA,AU
ChIJffyilSqYMioRiy6RnCLKvCM,Cockburn ARC,"32 Veterans Parade, Cockburn Central WA 6164, Australia",Cockburn,-32.125503099999996,115.850766,4.4,2905,+61 8 9411 3344,https://www.cockburnarc.com.au/,WA,AU
ChIJqyci6JeZMioRvrXycSjXiYU,Roar Active Bibra Lake,"23 Port Kembla Dr, Bibra Lake WA 6163, Australia",Cockburn,-32.0982246,115.8023452,4.7,1107,+61 8 9412 0000,https://roar.com.au/?utm_source=google&utm_medium=organic&utm_campaign=Google+My+Business&utm_content=Roar+Active+Bibra+Lake&utm_term=plcid_8744831014926607311,WA,AU
ChIJb1oQIHyXMioRelV9MSyoBzw,Goodlife Health Clubs Success,"816 Kwinana Fwy, 816 Beeliar Dr, Success WA 6164, Australia",Cockburn,-32.1305105,115.8569452,3.5,149,+61 8 6399 2800,https://www.goodlife.com.au/clubs/success/?utm_source=gbp&utm_medium=organic&utm_campaign=GL%20-%20AO%20-%20GBP%20-%20GOO%20-%20AU&utm_content=Goodlife%20Health%20Clubs%20Success&utm_term=plcid_17197441835347199269,WA,AU
ChIJy1YJyhGZMioRpxZKRZGNtco,One Life Fitness,"52 Erceg Rd, Yangebup WA 6164, Australia",Cockburn,-32.1212946,115.8002071,5,151,+61 438 202 242,http://onelifefitness.com.au/,WA,AU
ChIJx-_ZARaXMioRK1wvMAGERcA,Roar Active Jandakot,"624 Karel Ave, Jandakot WA 6164, Australia",Cockburn,-32.0901411,115.86959739999999,4.8,121,+61 8 6117 8777,https://roar.com.au/?utm_source=google&utm_medium=organic&utm_campaign=Google+My+Business&utm_content=Roar+Active+Jandakot&utm_term=plcid_9587442918824253479,WA,AU
ChIJS1HnR2uYMioRFMDKAIgQRZ0,Plus Fitness 24/7 South Lake,"41/620 N Lake Rd, South Lake WA 6164, Australia",Cockburn,-32.1072294,115.8286156,4.4,51,+61 8 9417 1771,https://www.plusfitness.com.au/gyms/southlake/,WA,AU
ChIJ5wNSgnaXMioRuqybELu9FRA,Snap Fitness 24/7 Jandakot,"Tenancy 22/87 Armadale Rd, Jandakot WA 6164, Australia",Cockburn,-32.1259071,115.86975969999999,4.6,130,+61 403 665 543,https://www.snapfitness.com/au/gyms/Jandakot?utm_source=gmb&utm_medium=yext,WA,AU
ChIJPxN27TmYMioRqMRr1keIj6A,F45 Training Cockburn,"Unit 2/5 Parkes St, Cockburn Central WA 6164, Australia",Cockburn,-32.1175347,115.83882109999999,5,42,+61 482 073 443,http://www.f45training.com.au/cockburn,WA,AU
ChIJ9b3ToHeXMioRxHb6beMo3zk,Fuel Bar - Cockburn,"9/49 Armadale Rd, Jandakot WA 6164, Australia",Cockburn,-32.126470999999995,115.86687919999999,4.9,60,,http://www.roar.com.au/,WA,AU
ChIJC22zIa-XMioRYUKoRZWHPEI,Empire Performance Centre,"8 Dollier St, Jandakot WA 6164, Australia",Cockburn,-32.1205421,115.87005380000001,5,84,+61 420 383 646,http://www.empireperformancecentre.com.au/,WA,AU
ChIJ7eCimw6ZMioRYps3sBeDwp8,FitnessHacks,"U4/1 Blackly Row, Cockburn Central WA 6164, Australia",Cockburn,-32.1229608,115.83971849999999,5,19,+61 466 352 368,http://www.fitnesshacks.com.au/,WA,AU
ChIJc_OyFZu9MioRKky81RjI9VA,Fitness Equipment Warehouse,"1/15 Blackly Row, Cockburn Central WA 6164, Australia",Cockburn,-32.1230492,115.83770009999998,4.6,54,+61 418 921 066,https://www.fitnessequipmentwarehouse.com.au/,WA,AU
ChIJq_L3I3yXMioRa4S8_Sa9RzM,SpeedFit Cockburn,"Cockburn Gateway Shopping City, 816 Beeliar Drive Next to Goodlife Health Centre, above, San Churro, Success WA 6164, Australia",Cockburn,-32.1295879,115.8569343,4.9,58,+61 485 033 331,https://joinspeedfit.com/location/cockburn-gateway-wa/,WA,AU
ChIJf9gKprWDMioRG4liNopirP8,Perform South,"2/10 Hammond Rd, Cockburn Central WA 6164, Australia",Cockburn,-32.119394299999996,115.83979769999999,5,20,+61 408 788 517,https://performhq.com.au/,WA,AU
ChIJS0f-YgyXMioR-6UFfSWr3mA,Fitstop Success,"22/816 Beeliar Dr, Success WA 6164, Australia",Cockburn,-32.1294809,115.8551726,5,36,+61 489 073 725,http://www.fitstop.com/success,WA,AU
ChIJFSJkXaeXMioR6YVLco02AbI,Fit Republic,"1/22 Chullora Bend, Jandakot WA 6164, Australia",Cockburn,-32.1233317,115.86471689999999,5,26,+61 432 501 207,https://www.fitrepublic.au/,WA,AU
ChIJW0AfArKYMioR7rZ0Sxlk9Ss,Coogee Beach Fitness Club,"20 Poore Grove, Coogee WA 6166, Australia",Cockburn,-32.1174056,115.7628143,4.8,91,+61 8 9418 4227,http://www.coogeebeachfitnessclub.com.au/,WA,AU
ChIJ7eIsgCqjMioRkfzC0Vk3rVM,Lakeside Fitness Centre,"2 Bibra Dr, North Lake WA 6163, Australia",Cockburn,-32.0812755,115.83896370000001,5,2,+61 8 9310 7700,https://lakeside.asn.au/fitness-centre/,WA,AU
ChIJc_E8a3OVMioRxtHJhGdIPKY,Snap Fitness 24/7 Gosnells,"2227 Albany Hwy, Gosnells WA 6110, Australia",Gosnells,-32.0715417,116.00117689999999,4.4,116,+61 401 978 879,https://www.snapfitness.com/au/gyms/gosnells?utm_source=gmb&utm_medium=yext,WA,AU
ChIJ9b1UAXSVMioRMPSXAPxfuy4,Zap Fitness 24/7 Gosnells,"Shops 2-5/2158 Albany Hwy, Gosnells WA 6110, Australia",Gosnells,-32.0690454,116.00057849999999,3.9,36,+61 1300 927 348,https://www.zapfitness.com.au/clubs/gosnells/?utm_source=gbp&utm_medium=organic&utm_campaign=ZAP%20-%20AO%20-%20GBP%20-%20GOO%20-%20AU&utm_content=Zap%20Fitness%2024/7%20Gosnells&utm_term=plcid_14700544752439846557,WA,AU
ChIJTQCIfP6VMioRByID3v73ZZY,Cyber Fitness,"Unit 1/105 Champion Dr, Kelmscott WA 6111, Australia",Kelmscott,-32.1285192,116.00045779999999,4.4,49,+61 8 6290 6031,https://cyberfitness.com.au/,WA,AU
ChIJAR2zraKUMioRqtNOyw_WNpA,Genesis Health and Fitness,"2948 Albany Hwy, Kelmscott WA 6111, Australia",Kelmscott,-32.122470799999995,116.01817319999998,4.6,293,+61 8 9390 4900,https://www.genesisfitness.com.au/gym/wa/kelmscott?utm_source=google&utm_medium=organic&utm_campaign=gmb&utm_content=kelmscott,WA,AU
ChIJfRB8kc6VMioRE0tFx2YcWao,Revo Fitness - Kelmscott,"Unit 2/2 Page Rd, Kelmscott WA 6111, Australia",Kelmscott,-32.1105368,116.01356359999998,4.1,142,+61 1300 738 638,https://revofitness.com.au/gyms/kelmscott/?utm_term=plcid_8021881534979445869&utm_source=google&utm_medium=organic&utm_campaign=Google+My+Business&utm_content=Revo+Fitness+-+Kelmscott,WA,AU
ChIJ9f35HJWUMioRdPoCPLoLwlw,Zap Fitness 24/7 Kelmscott,"7/2810 Albany Hwy, Kelmscott WA 6111, Australia",Kelmscott,-32.1136737,116.0147731,4,64,+61 1300 927 348,https://www.zapfitness.com.au/clubs/kelmscott/?utm_source=gbp&utm_medium=organic&utm_campaign=ZAP%20-%20AO%20-%20GBP%20-%20GOO%20-%20AU&utm_content=Zap%20Fitness%2024/7%20Kelmscott&utm_term=plcid_14718241425886704784,WA,AU
ChIJdUKcV6eVMioRHdnG4z-6yOw,Top Tier Strength & Conditioning,"Unit 4/2938 Albany Hwy, Kelmscott WA 6111, Australia",Kelmscott,-32.1209675,116.01856640000001,5,14,+61 412 571 751,https://www.instagram.com/top_tier_sc?igsh=djBobWt5OGxkN29u,WA,AU
ChIJwW_s6lGVMioRonVKfADQ91o,The Muay Thai Academy,"2938 Albany Hwy, Kelmscott WA 6111, Australia",Kelmscott,-32.1211701,116.0187608,5,21,+61 451 743 166,https://www.themuaythaiacademy.com.au/,WA,AU
ChIJkQTLQ5yUMioRdqz0IRqV_24,CrossFit Kill Switch,"Showroom 1/105 Champion Dr, Kelmscott WA 6111, Australia",Kelmscott,-32.1286945,115.9998216,5,8,,,WA,AU
ChIJkakW_7iVMioRt8M95c0v_TE,Southern Power Gym home of Dirty South Boxing Club,"Unit 3/2 Gillam Dr, Kelmscott WA 6111, Australia",Kelmscott,-32.13103460000001,116.0098251,4.1,18,+61 410 847 538,http://www.dirtysouthboxingclub.com/,WA,AU
ChIJw763joOVMioRHPbhZgLp8yg,XCD Fitness Personal Training & Online Coaching,"2948 Albany Hwy, Kelmscott WA 6111, Australia",Kelmscott,-32.1223719,116.01821029999999,5,8,+61 414 855 223,http://xcdfitness.mypthub.net/,WA,AU
ChIJCXSUqreVMioRcNeM057eaTQ,Body Agility - Kelmscott Gym,"105 Champion Dr, Kelmscott WA 6111, Australia",Kelmscott,-32.1284758,116.00040759999997,5,1,+61 8 6373 5063,http://www.bodyagility.com.au/,WA,AU
ChIJ5aQMWLiVMioRnnKTyDgsTNE,Âme Pilates,"Unit 1/2874 Albany Hwy, Kelmscott WA 6111, Australia",Kelmscott,-32.115616599999996,116.0160907,5,6,+61 437 159 985,https://www.amepilates.com.au/,WA,AU
ChIJo_XscZ9p1moRh3LBpBFGslY,Olsen Muay Thai,"1/6 Hendon Way, Kelmscott WA 6111, Australia",Kelmscott,-32.1327915,116.00855449999999,5,8,+61 422 298 767,https://app.punchpass.com/org/14765/classes,WA,AU
ChIJP1SiLXyVMioRycn6SVoFLsk,The Pilates Garage- Foothills Perth,"2938 Albany Hwy, Kelmscott WA 6111, Australia",Kelmscott,-32.1211701,116.0187608,5,19,,https://www.itsthepilatesgarage.com/,WA,AU
ChIJOyGBrqKUMioRWHqZO4K7pSA,Coaching Zone,"2948 Albany Hwy, Kelmscott WA 6111, Australia",Kelmscott,-32.1225129,116.0181135,5,1,+61 8 9390 4900,https://www.genesisfitness.com.au/coachingzone?utm_medium=organic&utm_source=gmb&utm_campaign=kelmscott%20,WA,AU
